시설명,카테고리1,카테고리2,카테고리3,시도 명칭,시군구 명칭,법정읍면동명칭,리 명칭,번지,도로명 이름,건물 번호,위도,경도,우편번호,도로명주소,지번주소,전화번호,홈페이지,휴무일,운영시간,주차 가능여부,입장(이용료)가격 정보,반려동물 동반 가능정보,반려동물 전용 정보,입장 가능 동물 크기,반려동물 제한사항,장소(실내) 여부,장소(실외)여부,기본 정보_장소설명,애견 동반 추가 요금,최종작성일,image_url,nmap_url
1004섬수석미술관,반려동물업,반려동반여행,미술관,전라남도,신안군,자은면,백산리,633-54 번지,자은서부2길,508-68 번,34.8800925,125.996874,58831,전라남도 신안군 자은면 자은서부2길 508-68,전라남도 신안군 자은면 백산리 633-54,061-240-8359,http://tour.shinan.go.kr/home/tour/theme_tour/theme_tour_17/theme_tour_17_01/page.wscms,매주 월요일,화~일 09:00~18:00,Y,없음,N,해당없음,해당없음,해당없음,Y,Y,미술관,없음,2022.11.30,,https://map.naver.com/p/entry/place/1814217632
107page,반려동물업,반려동물식당카페,카페,경상북도,구미시,봉곡동,,56-2 번지,봉곡서로,87-34 번,36.15863384,128.30627,39204,경상북도 구미시 봉곡서로 87-34,경상북도 구미시 봉곡동 56-2,0507-1331-7179,https://www.instagram.com/107page/,매주 월요일,화~일 12:00~22:00,N,변동,Y,해당없음,모두 가능,"마당, 1층만 입장 가능, 목줄, 배변봉투",Y,Y,애견카페,없음,2022.11.30,https://ldb-phinf.pstatic.net/20240914_215/1726284945675PTQFt_JPEG/IMG_1776.jpeg,https://map.naver.com/p/entry/place/1295268261
1723 카페,반려동물업,반려동물식당카페,카페,전라북도,전주시 완산구,교동,,98-2 번지,오목대길,83 번,35.81263594,127.151717,55044,전라북도 전주시 완산구 오목대길 83,전라북도 전주시 완산구 교동 98-2,063-288-1723,http://blog.naver.com/cafe1723,연중무휴,매일 10:30~22:00,N,변동,Y,해당없음,모두 가능,야외테라스만 동반 가능,Y,Y,애견카페,없음,2022.11.30,https://ldb-phinf.pstatic.net/20150901_267/1441102199935s1LYS_JPEG/136574585158623_0.jpeg,https://map.naver.com/p/entry/place/21799555
1919봄,반려동물업,반려동물식당카페,카페,경상남도,밀양시,산외면,금천리,810-4 번지,산외로,191 번,35.50542551,128.789995,50411,경상남도 밀양시 산외면 산외로 191,경상남도 밀양시 산외면 금천리 810-4,0507-1346-9661,https://www.instagram.com/1919spring/,매주 화요일,수~월 11:00~21:00,Y,변동,Y,해당없음,모두 가능,실외만 동반 가능,Y,Y,애견카페,없음,2022.11.30,https://ldb-phinf.pstatic.net/20200621_143/1592709024128Ly2sy_JPEG/pOew4hfMVS40i0kB4A9RFOI0.jpg,https://map.naver.com/p/entry/place/1867972136
315아트센터,반려동물업,반려동반여행,문예회관,경상남도,창원시 마산회원구,양덕동,,532-3 번지,삼호로,135 번,35.22581853,128.577106,51322,경상남도 창원시 마산회원구 삼호로 135,경상남도 창원시 마산회원구 양덕동 532-3,055-719-7800,www.cwcf.or.kr,전시공연에 따라 변동,전시공연에 따라 변동,Y,변동,Y,해당없음,모두 가능,야외만 반려동물 동반 가능,Y,N,문예회관,없음,2022.11.30,https://ldb-phinf.pstatic.net/20150831_56/14410130846491wNpB_JPEG/107152576069995_0.jpg,https://map.naver.com/p/entry/place/13280803
369펜션,반려동물업,반려동반여행,펜션,제주특별자치도,제주시,조천읍,와흘리,243 번지,와흘로,369 번,33.47371025,126.645997,63344,제주특별자치도 제주시 조천읍 와흘로 369,제주특별자치도 제주시 조천읍 와흘리 243,064-726-8266,http://jeju369.com/,연중무휴,매일 16:00~11:00,Y,변동,Y,해당없음,10kg 미만,애견용품 개별준비,Y,Y,애견 동반 펜션,"20,000원",2022.11.30,https://ldb-phinf.pstatic.net/20191106_174/1573049415913u01fs_JPEG/IamfXhFOazfmcXoUII6D4bZk.png.jpg,https://map.naver.com/p/entry/place/37891602
38 COFFEE,반려동물업,반려동물식당카페,카페,강원도,인제군,남면,부평리,1070-2 번지,설악로,1129 번,38.00149385,128.115654,24646,강원도 인제군 남면 설악로 1129,강원도 인제군 남면 부평리 1070-2,033-461-9966,정보없음,연중무휴,매일 08:30~20:30,Y,변동,Y,해당없음,모두 가능,제한사항 없음,Y,N,애견카페,없음,2022.11.30,https://ldb-phinf.pstatic.net/20230523_292/1684805427980Fojop_JPEG/%C4%AB%C6%E4%BD%C7%B3%BB3.jpg,https://map.naver.com/p/entry/place/36325888
38도씨식당,반려동물업,반려동물식당카페,식당,서울특별시,마포구,서교동,,409-11 번지,와우산로17길,19-17 번,37.54942988,126.921615,4049,서울특별시 마포구 와우산로17길 19-17,서울특별시 마포구 서교동 409-11,0507-1339-8387,https://instagram.com/38docisikdang,연중무휴,매일 17:00~01:00,N,변동,Y,해당없음,모두 가능,제한사항 없음,Y,N,애견 동반 식당,없음,2022.11.30,https://ldb-phinf.pstatic.net/20210721_132/1626855796685XVdK4_JPEG/W0db6n6s7HHCHrwhXAk9WPua.jpeg.jpg,https://map.naver.com/p/entry/place/1959618992
518기념공원,반려동물업,반려동반여행,여행지,광주광역시,서구,쌍촌동,,1268 번지,상무민주로,61 번,35.15574851,126.858584,61965,광주광역시 서구 상무민주로 61,광주광역시 서구 쌍촌동 1268,062-376-5197,https://www.seogu.gwangju.kr/menu.es?mid=a70901070000,연중무휴,매일 00:00~24:00,Y,없음,Y,해당없음,모두 가능,"목줄, 배변봉투",N,Y,공원,없음,2022.11.30,https://ldb-phinf.pstatic.net/20150831_113/1441010464064IXs3T_JPEG/126172516752620_0.jpg,https://map.naver.com/p/entry/place/19699777
518기념문화센터,반려동물업,반려동반여행,문예회관,광주광역시,서구,쌍촌동,,1268 번지,내방로,152 번,35.15830536,126.857556,61965,광주광역시 서구 내방로 152,광주광역시 서구 쌍촌동 1268,062-376-5197,https://www.gwangju.go.kr/518center,전시공연에 따라 변동,전시공연에 따라 변동,Y,변동,N,해당없음,해당없음,해당없음,Y,N,문예회관,없음,2022.11.30,https://ldb-phinf.pstatic.net/20181224_254/1545650254269WV7wF_JPEG/7yYJ0HLe4aNiaP--ibri0cGZ.jpg,https://map.naver.com/p/entry/place/16274932
63아트,반려동물업,반려동반여행,미술관,서울특별시,영등포구,여의도동,,60 번지,63로,50 번,37.51966416,126.939909,7345,서울특별시 영등포구 63로 50,서울특별시 영등포구 여의도동 60,02-789-5101,www.63art.co.kr,연중무휴,매일 10:00~22:00,Y,15000원,N,해당없음,해당없음,해당없음,Y,N,미술관,없음,2022.11.30,https://ldb-phinf.pstatic.net/20191121_213/1574318597333hWL0n_JPEG/9Tj-W1GAjm7qPdIs0VVPyFMb.jpg,https://map.naver.com/p/entry/place/1003402787
92버터샵,반려동물업,반려동물식당카페,카페,경상북도,구미시,옥계동,,743-1 번지,산호대로33길,18 번,36.13772258,128.423821,39184,경상북도 구미시 산호대로33길 18,경상북도 구미시 옥계동 743-1,0507-1353-5615,https://www.instagram.com/92_buttershop/,"매주 일, 월",화~토 11:00~20:00,Y,변동,Y,해당없음,모두 가능,제한사항 없음,Y,N,애견카페,없음,2022.11.30,https://ldb-phinf.pstatic.net/20200616_284/1592272106218VqB3y_JPEG/-JmQwGv6cshoZ4LssLNemq4E.jpeg.jpg,https://map.naver.com/p/entry/place/1757209139
가경공원,반려동물업,반려동반여행,여행지,충청북도,청주시 흥덕구,가경동,,84-1 번지,서부로,1241-31 번,36.61266041,127.437237,28382,충청북도 청주시 흥덕구 서부로 1241-31,충청북도 청주시 흥덕구 가경동 산 84-1,043-201-4435,정보없음,연중무휴,매일 00:00~24:00,Y,없음,Y,해당없음,모두 가능,"목줄, 배변봉투",N,Y,공원,없음,2022.11.30,,https://map.naver.com/p/entry/place/21082783
가든블루,반려동물업,반려동반여행,펜션,경기도,포천시,이동면,장암리,636-12 번지,화동로,2236-33 번,38.04364239,127.374561,11111,경기도 포천시 이동면 화동로 2236-33,경기도 포천시 이동면 장암리 636-12,0507-1309-3493,http://gardenblue.co.kr/,연중무휴,매일 15:00~11:00,Y,변동,Y,해당없음,10kg 이하,제한사항 없음,Y,Y,"애견 동반 펜션, 사전문의 필수","20,000원",2022.11.30,https://naverbooking-phinf.pstatic.net/20230621_230/1687347746536jrY8r_JPEG/9_HEK06485.jpg,https://map.naver.com/p/entry/place/38549851
가락바위소류지,반려동물업,반려동반여행,여행지,충청남도,아산시,탕정면,명암리,588 번지,,,36.80759774,127.059415,31452,,충청남도 아산시 탕정면 명암리 588,,정보없음,연중무휴,매일 00:00~24:00,Y,없음,Y,해당없음,모두 가능,"목줄, 배변봉투",N,Y,관광지,없음,2022.11.30,,https://map.naver.com/p/entry/place/17556046
가마미해수욕장,반려동물업,반려동반여행,여행지,전라남도,영광군,홍농읍,계마리,802-1 번지,가마미로,341-6 번,35.39762675,126.408005,57000,전라남도 영광군 홍농읍 가마미로 341-6,전라남도 영광군 홍농읍 계마리 802-1,061-356-1020,https://www.yeonggwang.go.kr/subpage/?site=tour_2019&mn=7387,연중무휴,매일 00:00~24:00,Y,없음,Y,해당없음,모두 가능,"목줄, 배변봉투",N,Y,관광지,없음,2022.11.30,https://ldb-phinf.pstatic.net/20150831_189/1440992292335FB8O0_JPEG/157155537073150_0.jpg,https://map.naver.com/p/entry/place/11491644
가산박물관,반려동물업,반려동반여행,박물관,충청북도,옥천군,안내면,용촌리,221 번지,안내회남로,310-5 번,36.40466701,127.621897,29005,충청북도 옥천군 안내면 안내회남로 310-5,충청북도 옥천군 안내면 용촌리 221,043-733-9129,http://blog.naver.com/phhyenym,연중무휴,매일 09:00~18:00,Y,없음,N,해당없음,해당없음,해당없음,Y,Y,박물관,없음,2022.11.30,,https://map.naver.com/p/entry/place/17821238
가수원근린공원,반려동물업,반려동반여행,여행지,대전광역시,서구,가수원동,,802-1 번지,가수원중로65번길,22 번,36.29819101,127.352494,35390,대전광역시 서구 가수원중로65번길 22,대전광역시 서구 가수원동 802-1,,정보없음,연중무휴,매일 00:00~24:00,N,없음,Y,해당없음,모두 가능,목줄,N,Y,공원,없음,2022.11.30,,https://map.naver.com/p/entry/place/36667587
가우도,반려동물업,반려동반여행,여행지,전라남도,강진군,,신기리,,,,34.52719533,126.764915,59251,,전라남도 강진군 도암면 신기리,061-432-2254,정보없음,연중무휴,매일 00:00~24:00,Y,없음,Y,해당없음,모두 가능,목줄,N,Y,관광지,없음,2022.11.30,https://ldb-phinf.pstatic.net/20200225_253/1582629725480dFEWU_JPEG/R7Xpz81bP1-HrchhOUpT03Ci.jpg,https://map.naver.com/p/entry/place/1712989974
가원별장 펜션,반려동물업,반려동반여행,펜션,경기도,양평군,단월면,명성리,613-3 번지,명성길,176-1 번,37.62218608,127.631772,12526,경기도 양평군 단월면 명성길 176-1,경기도 양평군 단월면 명성리 613-3,0507-1317-2027,http://gawonps.co.kr/,연중무휴,매일 15:00~11:00,Y,변동,Y,해당없음,7kg 이하,제한사항 없음,Y,Y,"애견 동반 펜션, 사전문의 필수","20,000원",2022.11.30,https://ldb-phinf.pstatic.net/20240926_205/1727339359875P4Stg_JPEG/018.jpg,https://map.naver.com/p/entry/place/21037535
가일미술관,반려동물업,반려동반여행,미술관,경기도,가평군,청평면,삼회리,609-6 번지,북한강로,1549 번,37.66041649,127.379434,12458,경기도 가평군 청평면 북한강로 1549,경기도 가평군 청평면 삼회리 609-6,031-584-4700,www.gailart.org,"설, 추석 연휴, 매주 월요일",화~일 10:00~17:00,Y,3000원,N,해당없음,해당없음,해당없음,Y,Y,미술관,없음,2022.11.30,http://blogfiles.naver.net/20160719_72/alfyoun_1468934208454l40BS_PNG/IMG_4901.png#900x900,https://map.naver.com/p/entry/place/10983806
가자펜션,반려동물업,반려동반여행,펜션,경상남도,거제시,남부면,다포리,38-15 번지,거제남서로,324-4 번,34.71600425,128.626327,53334,경상남도 거제시 남부면 거제남서로 324-4,경상남도 거제시 남부면 다포리 38-15,,https://gajaps.modoo.at/,연중무휴,매일 15:00~11:00,Y,변동,N,해당없음,해당없음,해당없음,Y,Y,펜션,없음,2022.11.30,https://ldb-phinf.pstatic.net/20170711_290/1499780706488Ah2Ue_JPEG/186661627523627_0.jpeg,https://map.naver.com/p/entry/place/31454153
가천박물관,반려동물업,반려동반여행,박물관,인천광역시,연수구,옥련동,,567-22 번지,청량로102번길,40-9 번,37.41847997,126.657603,21942,인천광역시 연수구 청량로102번길 40-9,인천광역시 연수구 옥련동 567-22,032-833-4747,www.gcmuseum.org,"1월1일, 설, 추석 연휴, 매주 월요일",화~일 09:00~17:00,Y,없음,Y,해당없음,모두 가능,야외만 반려동물 동반 가능,Y,Y,박물관,없음,2022.11.30,https://ldb-phinf.pstatic.net/20150901_188/1441038940399JMBis_JPEG/11784831_0.jpg,https://map.naver.com/p/entry/place/11784831
가톨릭관동대학교박물관,반려동물업,반려동반여행,박물관,강원도,강릉시,내곡동,,522 번지,범일로579번길,24 번,37.73732878,128.873705,25601,강원도 강릉시 범일로579번길 24,강원도 강릉시 내곡동 522,033-649-7851,http://museum.cku.ac.kr/,"매주 토, 일, 법정공휴일",월~금 09:00~17:00,Y,없음,N,해당없음,해당없음,해당없음,Y,N,박물관,없음,2022.11.30,https://ldb-phinf.pstatic.net/20180226_103/1519626104771l2wLo_JPEG/2ZHjO6APBZicSHMyPepMQXy3.jpg,https://map.naver.com/p/entry/place/11620701
가평문화예술회관,반려동물업,반려동반여행,문예회관,경기도,가평군,가평읍,대곡리,316 번지,문화로,131 번,37.82543108,127.506125,12416,경기도 가평군 가평읍 문화로 131,경기도 가평군 가평읍 대곡리 316,031-8078-8077,www.gpfmc.or.kr/sub2/sub2_1-1.php,연중무휴,매일 08:00~22:00,Y,변동,N,해당없음,해당없음,해당없음,Y,N,문예회관,없음,2022.11.30,https://ldb-phinf.pstatic.net/20150901_280/1441039723751dQm78_JPEG/116662607964941_0.jpg,https://map.naver.com/p/entry/place/11797330
가평힐링타임펜션,반려동물업,반려동반여행,펜션,경기도,가평군,상면,행현리,375-1 번지,수목원로,181-26 번,37.76246255,127.364275,12448,경기도 가평군 상면 수목원로 181-26,경기도 가평군 상면 행현리 375-1,,http://www.healingtimeps.com/,연중무휴,매일 15:00~11:00,Y,변동,Y,해당없음,소형/중형,애견용품 개별준비,Y,Y,"애견 동반 펜션, 대형견 사전문의","10,000원",2022.11.30,,https://map.naver.com/p/entry/place/38460106
가학산근린공원,반려동물업,반려동반여행,여행지,경기도,광명시,가학동,,7 번지,가학로85번길,134-23 번,37.42592096,126.865928,14341,경기도 광명시 가학로85번길 134-23,경기도 광명시 가학동 산 7,02-2680-6952,정보없음,연중무휴,매일 00:00~24:00,Y,없음,Y,해당없음,소형,"목줄, 배변봉투",N,Y,공원,없음,2022.11.30,,https://map.naver.com/p/entry/place/34069644
가화쌈지숲공원,반려동물업,반려동반여행,여행지,충청북도,옥천군,옥천읍,금구리,223 번지,,,36.30557822,127.560966,29034,,충청북도 옥천군 옥천읍 금구리 223,043-730-3484,정보없음,연중무휴,매일 00:00~24:00,Y,없음,Y,해당없음,모두 가능,"목줄, 배변봉투",N,Y,공원,없음,2022.11.30,,https://map.naver.com/p/entry/place/81032773
가회민화박물관,반려동물업,반려동반여행,박물관,서울특별시,종로구,가회동,,28 번지,북촌로,52 번,37.58150935,126.985229,3056,서울특별시 종로구 북촌로 52,서울특별시 종로구 가회동 28,02-741-0466,www.gahoemuseum.org,매주 월요일,화~일 10:00~18:000,Y,5000원,N,해당없음,해당없음,해당없음,Y,N,박물관,없음,2022.11.30,https://ldb-phinf.pstatic.net/20220402_32/1648858600507NB5lH_JPEG/image.jpg,https://map.naver.com/p/entry/place/11620400
각리근린공원,반려동물업,반려동반여행,여행지,충청북도,청주시 청원구,오창읍,각리,639-3 번지,,,36.70914239,127.432127,28125,,충청북도 청주시 청원구 오창읍 각리 639-3,043-201-4414,정보없음,연중무휴,매일 00:00~24:00,N,없음,Y,해당없음,모두 가능,"목줄, 배변봉투",N,Y,공원,없음,2022.11.30,,https://map.naver.com/p/entry/place/17806269
각화제,반려동물업,반려동반여행,여행지,광주광역시,북구,각화동,,,,,35.18452351,126.939782,61165,,광주광역시 북구 각화동,,정보없음,연중무휴,매일 00:00~24:00,Y,없음,Y,해당없음,모두 가능,목줄,N,Y,관광지,없음,2022.11.30,,https://map.naver.com/p/entry/place/16308662
간송박물관,반려동물업,반려동반여행,박물관,서울특별시,성북구,성북동,,81-2 번지,성북로,102-11 번,37.59446244,126.996239,2837,서울특별시 성북구 성북로 102-11,서울특별시 성북구 성북동 81-2,02-762-0442,http://kansong.org/,"매주 토, 일",월~금 10:00~18:00,Y,없음,N,해당없음,해당없음,해당없음,Y,N,박물관,없음,2022.11.30,https://ldb-phinf.pstatic.net/20220317_95/1647493710510DQ7Jy_JPEG/%BA%B8%C8%AD%B0%A2.jpg,https://map.naver.com/p/entry/place/11569734
간절곶,반려동물업,반려동반여행,여행지,울산광역시,울주군,서생면,대송리,28-1 번지,간절곶1길,39-2 번,35.35897306,129.360296,45015,울산광역시 울주군 서생면 간절곶1길 39-2,울산광역시 울주군 서생면 대송리 28-1,052-239-6313,https://www.lighthouse-museum.or.kr/,매주 월요일,"화~일 하절기 09:00~18:00, 동절기 09:00~17:00",Y,없음,Y,해당없음,모두 가능,목줄,N,Y,관광지,없음,2022.11.30,https://ldb-phinf.pstatic.net/20150901_169/1441045677635VpsLn_JPEG/13491761_0.jpg,https://map.naver.com/p/entry/place/13491761
갈마봉근린공원,반려동물업,반려동반여행,여행지,대전광역시,유성구,지족동,,837 번지,지족로328번길,123 번,36.38402393,127.317422,34076,대전광역시 유성구 지족로328번길 123,대전광역시 유성구 지족동 837,042-611-2344,정보없음,연중무휴,매일 00:00~24:00,N,없음,Y,해당없음,모두 가능,목줄,N,Y,공원,없음,2022.11.30,,https://map.naver.com/p/entry/place/32812368
갈매구릉산자락길,반려동물업,반려동반여행,여행지,경기도,구리시,갈매동,,392-20 번지,,,37.62707172,127.121305,11902,,경기도 구리시 갈매동 392-20,031-550-2047,https://www.guri.go.kr/culture/selectTourCntntsWebView.do?tourNo=161&key=1188&ctgry=5,연중무휴,매일 00:00~24:00,Y,없음,Y,해당없음,모두 가능,"목줄, 배변봉투",N,Y,관광지,없음,2022.11.30,https://ldb-phinf.pstatic.net/20200414_231/1586839022050QBAqJ_JPEG/lFL36hkQq8qVlbZoRcpXETlc.jpg,https://map.naver.com/p/entry/place/1310892145
감귤박물관,반려동물업,반려동반여행,박물관,제주특별자치도,서귀포시,신효동,,1200-6 번지,효돈순환로,441 번,33.27159304,126.607428,63605,제주특별자치도 서귀포시 효돈순환로 441,제주특별자치도 서귀포시 신효동 1200-6,064-760-6400,https://culture.seogwipo.go.kr/citrus/index.htm,"1월1일, 설, 추석 당일","매일 09:00~18:00, 7~9월 09:00~19:00",Y,1500원,Y,해당없음,모두 가능,야외만 반려동물 동반 가능,Y,Y,박물관,없음,2022.11.30,https://ldb-phinf.pstatic.net/20171215_281/1513304176404ulDBG_JPEG/EL3A0630.jpg,https://map.naver.com/p/entry/place/11621632
감나무실공원,반려동물업,반려동반여행,여행지,충청북도,청주시 흥덕구,가경동,,1692 번지,2순환로1329번길,10 번,36.61860037,127.436758,28411,충청북도 청주시 흥덕구 2순환로1329번길 10,충청북도 청주시 흥덕구 가경동 1692,043-200-2815,정보없음,연중무휴,매일 00:00~24:00,N,없음,Y,해당없음,모두 가능,"목줄, 배변봉투",N,Y,공원,없음,2022.11.30,https://ldb-phinf.pstatic.net/20150901_236/14410389705835YcH5_JPEG/116580558133857_0.jpg,https://map.naver.com/p/entry/place/13451851
감악산 출렁다리,반려동물업,반려동반여행,여행지,경기도,파주시,적성면,설마리,산 21-1 번지,설마천로,238 번,37.93841476,126.947316,10805,경기도 파주시 적성면 설마천로 238,경기도 파주시 적성면 설마리 산 21-1,031-950-1938,https://tour.paju.go.kr/user/tour/place/BD_tourPlaceInfoView.do?menuCode=4&areaSe=&cntntsSn=2061,연중무휴,매일 09:00~18:00,Y,없음,Y,해당없음,모두 가능,"목줄, 배변봉투",N,Y,관광지,없음,2022.11.30,https://ldb-phinf.pstatic.net/20180108_184/1515389250611JUPJA_JPEG/hx1YY1rtXYbgruscV4jXQ6Xw.jpg,https://map.naver.com/p/entry/place/95382352
감우재전승기념관,반려동물업,반려동반여행,박물관,충청북도,음성군,음성읍,소여리,897 번지,생음대로,594 번,36.95068328,127.647013,27685,충청북도 음성군 음성읍 생음대로 594,충청북도 음성군 음성읍 소여리 897,043-871-5930,https://www.eumseong.go.kr/tour/selectTourCntntsWebView.do?key=7031&tourNo=24&ctgry=8,"1월1일, 설, 추석 연휴, 매주 월요일",화~일 09:00~18:00,Y,없음,N,해당없음,해당없음,해당없음,Y,N,박물관,없음,2022.11.30,http://blogfiles.naver.net/MjAxODA2MTdfMjc1/MDAxNTI5MjI0OTI0OTQ0.yhPtTd-ql_0WoseGs-2fcvQWLCnDj_--7P_LgiQFVPAg.O7XIwYs_8KA_eFxFB6mGBlQMXhICsUZl78QCALzlOhcg.JPEG.eumseonggun/SAM_8151.JPG#3000x2000,https://map.naver.com/p/entry/place/20027347
감자밭,반려동물업,반려동물식당카페,카페,강원도,춘천시,신북읍,천전리,99-13 번지,신샘밭로,674 번,37.92958863,127.784517,24204,강원도 춘천시 신북읍 신샘밭로 674,강원도 춘천시 신북읍 천전리 99-13,1566-3756,https://www.instagram.com/gamzabatt/,연중무휴,매일 10:00~21:00,Y,변동,Y,해당없음,소형/중형,"목줄 필수, 대형견 입장 불가, 1층 및 야외 테라스 가능",Y,Y,애견카페,없음,2022.11.30,https://ldb-phinf.pstatic.net/20190719_37/1563524078828qIkz3_JPEG/DHngFYRQwF4ELG3mbCBOGT5L.jpg,https://map.naver.com/p/entry/place/1823037411
감천문화마을,반려동물업,반려동반여행,여행지,부산광역시,사하구,감천동,,10-2 번지,옥천로,130 번,35.09686103,129.01109,49368,부산광역시 사하구 옥천로 130,부산광역시 사하구 감천동 10-2,051-204-1444,https://m.gamcheon.or.kr/?doc=sub_01_02,연중무휴,매일 00:00~24:00,Y,없음,Y,해당없음,모두 가능,목줄,N,Y,관광지,없음,2022.11.30,https://ldb-phinf.pstatic.net/20150901_296/1441106775581HW1Yv_JPEG/137160528543605_0.jpeg,https://map.naver.com/p/entry/place/21884707
갑천근린공원,반려동물업,반려동반여행,여행지,대전광역시,유성구,봉명동,,702 번지,,,36.35459963,127.350864,34175,,대전광역시 유성구 봉명동 702,,정보없음,연중무휴,매일 00:00~24:00,Y,없음,Y,해당없음,모두 가능,목줄,N,Y,공원,없음,2022.11.30,,https://map.naver.com/p/entry/place/1374922844
갓바위미술관,반려동물업,반려동반여행,미술관,전라남도,목포시,명륜동,,18 번지,노적봉길,4-1 번,34.79022712,126.385005,58728,전라남도 목포시 노적봉길 4-1,전라남도 목포시 명륜동 18,061-279-5763,정보없음,매주 월요일,화~일 10:00~18:00,N,없음,N,해당없음,해당없음,해당없음,Y,N,미술관,없음,2022.11.30,,https://map.naver.com/p/entry/place/38418648
강경젓갈전시관,반려동물업,반려동반여행,여행지,충청남도,논산시,강경읍,황산리,198 번지,금백로,45 번,36.15755625,127.009806,32930,충청남도 논산시 강경읍 금백로 45,충청남도 논산시 강경읍 황산리 198,041-730-4648,정보없음,매주 일요일,월~토 10:00~17:00,Y,없음,Y,해당없음,모두 가능,목줄,N,Y,관광지,없음,2022.11.30,,https://map.naver.com/p/entry/place/1949513015
강남구민회관,반려동물업,반려동반여행,문예회관,서울특별시,강남구,대치동,,509-2 번지,삼성로,154 번,37.49388799,127.064272,6288,서울특별시 강남구 삼성로 154,서울특별시 강남구 대치동 509-2,02-2176-0891,https://life.gangnam.go.kr/fmcs/103,"일요일, 법정공휴일 휴관","월~금 08:00~21:30, 토 09:00~19:30",Y,없음,N,해당없음,해당없음,해당없음,Y,N,문예회관,없음,2022.11.30,http://blogfiles.naver.net/20160316_289/bbaebbaero_1458123776967pj0PC_JPEG/005.JPG#480x640,https://map.naver.com/p/entry/place/11623422
강동문화복지회관,반려동물업,반려동반여행,문예회관,경상북도,구미시,구평동,,241-3 번지,인동가산로,392 번,36.09011528,128.454654,39444,경상북도 구미시 인동가산로 392,경상북도 구미시 구평동 241-3,054-480-2990,https://www.gumi.go.kr/artsgd/main.do,"매주 토, 일",월~금 09:00~18:00,Y,변동,N,해당없음,해당없음,해당없음,Y,N,문예회관,없음,2022.11.30,,https://map.naver.com/p/entry/place/1743891928
강동아트센터,반려동물업,반려동반여행,문예회관,서울특별시,강동구,상일동,,477 번지,동남로,870 번,37.55122046,127.157343,5278,서울특별시 강동구 동남로 870,서울특별시 강동구 상일동 477,02-440-0500,www.gangdongarts.or.kr,연중무휴,매일 09:00~18:00,Y,변동,N,해당없음,해당없음,해당없음,Y,Y,문예회관,없음,2022.11.30,https://ldb-phinf.pstatic.net/20230712_253/1689138767905qLfqN_JPEG/%B0%AD%B5%BF%BE%C6%C6%AE%BC%BE%C5%CD_%BF%DC%B0%FC1-%BC%F6%C1%A4.jpg,https://map.naver.com/p/entry/place/19452036
강릉굴산사지당간지주,반려동물업,반려동반여행,여행지,강원도,강릉시,구정면,학산리,1181 번지,,,37.70727935,128.891822,25623,,강원도 강릉시 구정면 학산리 1181,033-640-5581,정보없음,연중무휴,매일 00:00~24:00,N,없음,Y,해당없음,모두 가능,"목줄, 배변봉투",N,Y,관광지,없음,2022.11.30,http://blogfiles.naver.net/MjAxNzA2MDhfNzgg/MDAxNDk2ODgzMjgzODMx.n8PFHvXmBCH77BROP8Zva3Pm9n80Rs9IqkKIIHw1bFAg.7RWA9FlnlzxaZ1UUdfMFbmP0tUFf-xq1Pr90u9fuEKwg.JPEG.daichung/20170518_095819_HDR.jpg#2340x4160,https://map.naver.com/p/entry/place/15700923
강릉단오제전수교육관,반려동물업,반려동반여행,문예회관,강원도,강릉시,노암동,,722-2 번지,단오장길,1 번,37.74820182,128.895041,25586,강원도 강릉시 단오장길 1,강원도 강릉시 노암동 722-2,033-660-3940,www.gn.go.kr/dano/,법정공휴일,매일 09:00~18:00,Y,변동,N,해당없음,해당없음,해당없음,Y,N,문예회관,없음,2022.11.30,https://ldb-phinf.pstatic.net/20150901_230/1441042877852O6xER_JPEG/96872517439514_0.jpg,https://map.naver.com/p/entry/place/12955259
강릉대관령전망대,반려동물업,반려동반여행,여행지,강원도,강릉시,성산면,보광리,151 번지,영동고속도로,232 번,37.75734947,128.806638,25442,강원도 강릉시 성산면 영동고속도로 232,강원도 강릉시 성산면 보광리 151,,정보없음,연중무휴,매일 00:00~24:00,Y,없음,Y,해당없음,모두 가능,목줄,N,Y,관광지,없음,2022.11.30,,https://map.naver.com/p/entry/place/872503823
강릉선교장박물관,반려동물업,반려동반여행,박물관,강원도,강릉시,운정동,,431 번지,운정길,63 번,37.7872994,128.884542,25464,강원도 강릉시 운정길 63,강원도 강릉시 운정동 431,033-648-5303,https://knsgj.net,매주 월요일,화~일 09:00~17:00,Y,5000원,N,해당없음,해당없음,해당없음,Y,N,박물관,없음,2022.11.30,,https://map.naver.com/p/entry/place/15706397
강릉아트센터,반려동물업,반려동반여행,문예회관,강원도,강릉시,교동,,408 번지,종합운동장길,84 번,37.77164458,128.895401,25474,강원도 강릉시 종합운동장길 84,강원도 강릉시 교동 408,033-660-6800,www.gn.go.kr/artscenter,전시공연에 따라 변동,전시공연에 따라 변동,Y,변동,N,해당없음,해당없음,해당없음,Y,Y,문예회관,없음,2022.11.30,http://blogfiles.naver.net/MjAxODAzMDlfMjEy/MDAxNTIwNTQ3ODk3Mzc5.r_kvUgaSbVqD93vIIFhV_HL9Ro0OLmktk3nkeczuCf0g.yZ_osIPwfBDk3GFjNBUC4-KsEaEoL7FUuskHcdSRs1Ug.JPEG.hong273526/20180308_204518.jpg#4032x2268,https://map.naver.com/p/entry/place/1550291849
강릉원주대학교 박물관,반려동물업,반려동반여행,박물관,강원도,강릉시,지변동,,123 번지,죽헌길,7 번,37.76569493,128.870005,25457,강원도 강릉시 죽헌길 7,강원도 강릉시 지변동 123,033-640-2596,http://museum.gwnu.ac.kr,"매주 토, 일, 법정공휴일",월~금 09:00~18:00,Y,없음,N,해당없음,해당없음,해당없음,Y,N,박물관,없음,2022.11.30,http://blogfiles.naver.net/MjAxOTAyMjdfMTQ5/MDAxNTUxMjI5MTY0MzIw.VHjsrGkBQyPL8QzioLqmUL9dvidJgw71tBV-MOrmw1sg.AS9mUoYaiMrALRV556oMPm2HjObR4YzjYhh_qeXJsfYg.JPEG.pinegn/%BD%C3%C3%BB2019%BD%E6%B3%D7%C0%CF022702.jpg#567x567,https://map.naver.com/p/entry/place/21824426
강릉커피박물관,반려동물업,반려동반여행,박물관,강원도,강릉시,왕산면,왕산리,806-5 번지,왕산로,2171-19 번,37.65223553,128.784661,25641,강원도 강릉시 왕산면 왕산로 2171-19,강원도 강릉시 왕산면 왕산리 806-5,070-8888-0077,www.coffeemuseum.kr,정보없음,정보없음,Y,5000원,N,해당없음,해당없음,해당없음,Y,N,박물관,없음,2022.11.30,https://ldb-phinf.pstatic.net/20190925_31/1569374384827lErIq_JPEG/WDfxVyfr5xTL4GSgU_AreNYV.jpg,https://map.naver.com/p/entry/place/13313746
강북문화예술회관,반려동물업,반려동반여행,문예회관,서울특별시,강북구,수유동,,360-10 번지,삼각산로,85 번,37.64098979,127.013878,1036,서울특별시 강북구 삼각산로 85,서울특별시 강북구 수유동 360-10,02-944-3068,https://www.gbcmc.or.kr/fmcs/25,매주 일요일,전시공연에 따라 변동,Y,변동,N,해당없음,해당없음,해당없음,Y,N,문예회관,없음,2022.11.30,http://blogfiles.naver.net/MjAxNzExMDdfMjM3/MDAxNTEwMDM3ODU0ODUz.yglgEnjXzIJAmHwbFmwuZQTPqW1ENA1IQTBKC5h1Yqog.4kr6Pjm2fjd7bfO9ErtmNSijLZfJJfnf94lDVlAotDwg.JPEG.hopegb/%BF%B9%BC%FA%C8%B8%B0%FC2.jpg#3040x2040,https://map.naver.com/p/entry/place/13283893
강서 한강공원,반려동물업,반려동반여행,여행지,서울특별시,강서구,방화동,,47 번지,양천로27길,279-23 번,37.58604147,126.817145,7518,서울특별시 강서구 양천로27길 279-23,서울특별시 강서구 방화동 47,02-3780-0621,https://hangang.seoul.go.kr/archives/46788,연중무휴,매일 00:00~24:00,Y,없음,Y,해당없음,모두 가능,"목줄, 배변봉투",N,Y,공원,없음,2022.11.30,https://ldb-phinf.pstatic.net/20150901_170/1441033988895bFru3_JPEG/13416990_0.jpg,https://map.naver.com/p/entry/place/13416990
강서구민회관,반려동물업,반려동반여행,문예회관,서울특별시,강서구,내발산동,,19-1 번지,우장산로,66 번,37.55343642,126.843649,7684,서울특별시 강서구 우장산로 66,서울특별시 강서구 내발산동 산 19-1,02-3664-6046,www.gssi.or.kr,법정공휴일,매일 09:00~18:00,Y,변동,N,해당없음,해당없음,해당없음,Y,N,문예회관,없음,2022.11.30,http://blogfiles.naver.net/20141117_218/mfboy1_1416233526963PnrMf_JPEG/KakaoTalk_20141116_140010211.jpg#900x675,https://map.naver.com/p/entry/place/12890334
강아지공간,반려동물업,반려동물식당카페,카페,경기도,용인시 수지구,죽전동,,876-6 번지,용구대로,2769 번,37.33290687,127.108438,16867,경기도 용인시 수지구 용구대로 2769,경기도 용인시 수지구 죽전동 876-6,031-261-0969,http://instagram.com/puppy__ground,연중무휴,매일 11:30~21:00,Y,변동,Y,해당없음,모두 가능,제한사항 없음,Y,N,"애견카페, 호텔, 유치원",없음,2022.11.30,https://ldb-phinf.pstatic.net/20210713_251/1626152241338K9HiX_JPEG/xbJYaqHoue47FvmKef12dhnO.jpeg.jpg,https://map.naver.com/p/entry/place/1582642838
강아지대학로,반려동물업,반려동물식당카페,카페,서울특별시,종로구,동숭동,,1-139 번지,대학로12길,92 번,37.58009773,127.003684,3086,서울특별시 종로구 대학로12길 92,서울특별시 종로구 동숭동 1-139,,http://www.instagram.com/dogdaehak.ro_dogcafe,연중무휴,매일 13:00~20:30,N,변동,Y,반려동물 전용,모두 가능,"소, 중, 대형견 공간분리",Y,N,애견카페,없음,2022.11.30,https://ldb-phinf.pstatic.net/20240809_91/1723190237333PInWT_JPEG/1716975493864-8.jpg,https://map.naver.com/p/entry/place/1777602086
강아지숲 박물관,반려동물업,반려동반여행,박물관,강원도,춘천시,남산면,광판리,1193 번지,충효로,437 번,37.73643502,127.66202,24466,강원도 춘천시 남산면 충효로 437,강원도 춘천시 남산면 광판리 1193,033-913-1400,http://www.dforest.co.kr/index.html,"1월1일, 설, 추석 당일, 매주 월요일",화~일 10:00~18:00,Y,17000원,Y,해당없음,모두 가능,"목줄, 배변봉투",Y,Y,"박물관, 강아지 동반 고객 '강아지 대기실' 운영",없음,2022.11.30,,https://map.naver.com/p/entry/place/1049344751
강아지숲 반려견 테마파크,반려동물업,반려동반여행,여행지,강원도,춘천시,남산면,광판리,1193 번지,충효로,437 번,37.73643502,127.66202,24466,강원도 춘천시 남산면 충효로 437,강원도 춘천시 남산면 광판리 1193,033-913-1400,http://www.dforest.co.kr/index.html,매주 월요일,화~일 10:00~18:00,Y,17000원,Y,해당없음,모두 가능,"맹견, 공격성 있는 경우 입장 제한",Y,Y,"애견카페, 운동장","8,000원",2022.11.30,https://ldb-phinf.pstatic.net/20210809_219/1628476011928J26pG_JPEG/l9l37F9zGSx5u8WoYuJPvf19.jpg,https://map.naver.com/p/entry/place/1806671210
강아지이발소,반려동물업,반려동물식당카페,카페,경상남도,김해시,외동,,1254-3 번지,내외중앙로,29 번,35.23266897,128.865954,50948,경상남도 김해시 내외중앙로 29,경상남도 김해시 외동 1254-3,0507-1338-7247,https://www.instagram.com/dog_barber_h,격주 일요일,매일 10:00~20:00,Y,변동,Y,해당없음,모두 가능,제한사항 없음,Y,N,"애견카페, 유치원, 호텔, 미용",없음,2022.11.30,https://ldb-phinf.pstatic.net/20181206_181/15440580778982XYzK_JPEG/IkU_Qvo6VO3-FwT8798dcBuW.jpg,https://map.naver.com/p/entry/place/37153846
강아지정류장,반려동물업,반려동물식당카페,카페,서울특별시,강서구,염창동,,250-8 번지,양천로,709 번,37.54992339,126.874825,7540,서울특별시 강서구 양천로 709,서울특별시 강서구 염창동 250-8,02-3662-1207,http://www.instagram.com/puppy__station,매주 월요일,화~일 08:00~20:00,N,변동,Y,반려동물 전용,모두 가능,제한사항 없음,Y,N,애견카페,없음,2022.11.30,https://ldb-phinf.pstatic.net/20221215_80/1671074610589h8tw4_JPEG/55FBF9E9-573E-4AAF-91FD-EE1431A26BAD.jpeg,https://map.naver.com/p/entry/place/1796095575
강아지집,반려동물업,반려동물식당카페,카페,강원도,원주시,일산동,,264-10 번지,천사로,148 번,37.34890241,127.941109,26425,강원도 원주시 천사로 148,강원도 원주시 일산동 264-10,0507-1480-6679,http://blog.naver.com/mimi6932,연중무휴,매일 09:00~22:00,Y,변동,Y,해당없음,모두 가능,제한사항 없음,Y,N,"강아지, 고양이 카페, 미용, 용품",없음,2022.11.30,https://ldb-phinf.pstatic.net/20150910_210/1441864616479jfLlw_JPEG/SUBMIT_1441864608256_36332421.jpg,https://map.naver.com/p/entry/place/36332421
강원경찰박물관,반려동물업,반려동반여행,박물관,강원도,춘천시,신북읍,율문리,315-3 번지,신샘밭로,361 번,37.92530023,127.749932,24206,강원도 춘천시 신북읍 신샘밭로 361,강원도 춘천시 신북읍 율문리 315-3,033-245-0481,www.gwpolice.go.kr,"1월1일, 설, 추석 당일, 매주 월요일","화~일 하절기 09:00~18:00, 동절기 09:00~17:00",Y,없음,N,해당없음,해당없음,해당없음,Y,N,박물관,없음,2022.11.30,https://ldb-phinf.pstatic.net/20150901_249/1441038305877oOceA_JPEG/11782307_0.jpg,https://map.naver.com/p/entry/place/11782307
강원대학교 중앙박물관,반려동물업,반려동반여행,박물관,강원도,춘천시,효자동,,192-1 번지,강원대학길,1 번,37.86802431,127.748387,24341,강원도 춘천시 강원도대학길 1,강원도 춘천시 효자동 192-1,033-250-8077,http://museum.kangwon.ac.kr,"1월1일, 설, 추석 당일, 매주 월요일",화~일 09:00~18:00,Y,없음,N,해당없음,해당없음,해당없음,Y,N,박물관,없음,2022.11.30,https://ldb-phinf.pstatic.net/20150831_26/1441006776572H0NVF_JPEG/116464567235801_0.jpg,https://map.naver.com/p/entry/place/11620572
강원도산림박물관,반려동물업,반려동반여행,박물관,강원도,춘천시,사농동,,218-5 번지,화목원길,24 번,37.92264687,127.72516,24207,강원도 춘천시 화목원길 24,강원도 춘천시 사농동 218-5,033-248-6685,http://www.gwpa.kr/,"1월1일, 설, 추석 당일, 첫째주 월요일","화~일 하절기 09:00~18:00, 동절기 09:00~17:00",Y,없음,N,해당없음,해당없음,해당없음,Y,N,박물관,없음,2022.11.30,https://ldb-phinf.pstatic.net/20150901_9/1441038320070i2X0J_GIF/11782343_0.gif,https://map.naver.com/p/entry/place/11782343
강원도탄광문화촌,반려동물업,반려동반여행,박물관,강원도,영월군,북면,마차리,786-4 번지,밤재로,351 번,37.2631059,128.466905,26209,강원도 영월군 북면 밤재로 351,강원도 영월군 북면 마차리 786-4,033-372-1520,www.ywmuseum.com,매주 월요일,"화~일 하절기 10:00~18:00, 동절기 10:00~17:00",Y,2000원,N,해당없음,해당없음,해당없음,Y,N,박물관,없음,2022.11.30,https://ldb-phinf.pstatic.net/20200806_122/1596716657104pPlHP_JPEG/n0vuJ4OtPPD_GUybV1Duv2mK.jpeg.jpg,https://map.naver.com/p/entry/place/13334223
강이네하우스,반려동물업,반려동반여행,펜션,강원도,양양군,서면,상평리,437 번지,상평1길,17-2 번,38.06692416,128.583355,25035,강원도 양양군 서면 상평1길 17-2,강원도 양양군 서면 상평리 437,0507-1314-2453,https://kang2nehouse.modoo.at/,연중무휴,매일 15:00~11:00,Y,변동,Y,해당없음,소형/중형,"입질, 공격성 있는 경우 입장 제한",Y,Y,"애견 동반 펜션, 사전문의 필수","20,000원",2022.11.30,https://ldb-phinf.pstatic.net/20200703_126/1593763097728eE99H_JPEG/20200703091759_IMG_6447-01.jpeg,https://map.naver.com/p/entry/place/1178786778
강주해바라기마을,반려동물업,반려동반여행,여행지,경상남도,함안군,법수면,강주리,486-3 번지,강주4길,37 번,35.32130962,128.333096,52059,경상남도 함안군 법수면 강주4길 37,경상남도 함안군 법수면 강주리 486-3,055-583-5387,https://www.haman.go.kr/,연중무휴,매일 08:00~19:00,Y,3000원,Y,해당없음,모두 가능,목줄,N,Y,관광지,없음,2022.11.30,http://blogfiles.naver.net/MjAxNzA5MDNfOTkg/MDAxNTA0NDQwNDkwOTkw.ZfrnLO-kjOmMc3m_nT6F0IG-Nj3l23b8tjiS_QtLgpcg.Zp0hMI0nlW0qjfqwYLS8ISJiqUptzKyy789g2qF_zCEg.JPEG.polkadot127/IMG_0872.JPG#5472x3648,https://map.naver.com/p/entry/place/37081650
강진미술관,반려동물업,반려동반여행,미술관,전라남도,강진군,강진읍,동성리,434 번지,동문길,39 번,34.6439669,126.768594,59226,전라남도 강진군 강진읍 동문길 39,전라남도 강진군 강진읍 동성리 434,,정보없음,매주 일요일,월~토 09:30~17:30,Y,변동,N,해당없음,해당없음,해당없음,Y,Y,미술관,없음,2022.11.30,https://ldb-phinf.pstatic.net/20190716_158/156324284003668djO_JPEG/JyLw97zMGRpAmBW2lRS-Djeo.jpg,https://map.naver.com/p/entry/place/1988047446
강진아트홀,반려동물업,반려동반여행,문예회관,전라남도,강진군,강진읍,남성리,23-2 번지,영랑로1길,9 번,34.63817527,126.770499,59233,전라남도 강진군 강진읍 영랑로1길 9,전라남도 강진군 강진읍 남성리 23-2,061-430-3972,https://arthall.gangjin.go.kr,매주 월요일,화~일 09:00~22:00,Y,변동,N,해당없음,해당없음,해당없음,Y,N,문예회관,없음,2022.11.30,,https://map.naver.com/p/entry/place/20050189
강천섬유원지,반려동물업,반려동반여행,여행지,경기도,여주시,강천면,강천리,645 번지,강천리길,88 번,37.23474348,127.707936,12664,경기도 여주시 강천면 강천리길 88,경기도 여주시 강천면 강천리 645,,정보없음,연중무휴,매일 00:00~24:00,Y,없음,Y,해당없음,모두 가능,"목줄, 배변봉투",N,Y,관광지,없음,2022.11.30,http://blogfiles.naver.net/MjAyMTA2MjhfMjAx/MDAxNjI0ODUxMDQ2NzA1.4zoPQhzD0mFBupswb6IHrZgyrod4Xeh4txJp1e2MT9Ig.AL7G33E1JRdq883JBLau770MySVs_-8XQIJ5TRozhaAg.JPEG.yeojuhangul/1.jpg#693x520,https://map.naver.com/p/entry/place/1682100116
강촌레일파크,반려동물업,반려동반여행,여행지,강원도,춘천시,남산면,서천리,226-6 번지,서백길,57 번,37.84274539,127.550947,24464,강원도 춘천시 남산면 서백길 57,강원도 춘천시 남산면 서천리 226-6,033-245-1002,http://www.railpark.co.kr/,연중무휴,"매일 하절기 09:00~17:00, 동절기 09:00~15:30",Y,변동,Y,해당없음,소형,목줄,N,Y,관광지,없음,2022.11.30,https://ldb-phinf.pstatic.net/20231115_152/1700037150334RHYSl_JPEG/DSC_6679.jpg,https://map.naver.com/p/entry/place/20579322
강화 로만티카애견리조트,반려동물업,반려동반여행,펜션,인천광역시,강화군,화도면,흥왕리,917 번지,해안남로,1986 번,37.60418699,126.411654,23062,인천광역시 강화군 화도면 해안남로 1986,인천광역시 강화군 화도면 흥왕리 917,0507-1351-4569,http://www.romantica2010.com/,연중무휴,매일 15:00~11:00,Y,변동,Y,해당없음,10kg 미만,객실당 최대 5마리,Y,Y,애견 동반 펜션,"10,000원",2022.11.30,https://ldb-phinf.pstatic.net/20230925_32/1695618271000WMrGx_JPEG/2.jpg,https://map.naver.com/p/entry/place/20982315
강화 로맨틱큐브펜션,반려동물업,반려동반여행,펜션,인천광역시,강화군,길상면,선두리,965-21 번지,해안남로,664-11 번,37.60244201,126.491252,23051,인천광역시 강화군 길상면 해안남로 664-11,인천광역시 강화군 길상면 선두리 965-21,,http://www.romanticcube.com/,연중무휴,매일 15:00~11:00,Y,변동,Y,해당없음,10kg 미만,객실당 최대 3마리,Y,Y,애견 동반 펜션,"20,000원",2022.11.30,https://ldb-phinf.pstatic.net/20210524_204/1621826630850m6NAV_JPEG/IMG_6626.JPG,https://map.naver.com/p/entry/place/32566168
강화 마니산스토리,반려동물업,반려동반여행,펜션,인천광역시,강화군,화도면,여차리,645-1 번지,해안남로2220번길,30 번,37.6096682,126.396051,23061,인천광역시 강화군 화도면 해안남로2220번길 30,인천광역시 강화군 화도면 여차리 645-1,,https://manisanstorys.modoo.at/,연중무휴,매일 15:00~11:00,Y,변동,Y,해당없음,8kg 미만,객실당 최대 3마리,Y,Y,애견 동반 펜션,"10,000원",2022.11.30,https://ldb-phinf.pstatic.net/20200901_114/1598951943488XhlX4_JPEG/KakaoTalk_20200827_205839544_04.jpg,https://map.naver.com/p/entry/place/35719689
강화 아우라 독채펜션,반려동물업,반려동반여행,펜션,인천광역시,강화군,화도면,여차리,415 번지,해안남로,2166-32 번,37.60577455,126.40127,23061,인천광역시 강화군 화도면 해안남로 2166-32,인천광역시 강화군 화도면 여차리 415,,http://xn--oi2b00q97cvubvy6a.kr/,연중무휴,매일 14:00~11:00,Y,변동,Y,해당없음,10kg 미만,"객실당 최대 2마리, 애견용품 개별준비",Y,Y,애견 동반 펜션,"20,000원",2022.11.30,https://ldb-phinf.pstatic.net/20220915_232/16632066161860oX9b_JPEG/0.jpg,https://map.naver.com/p/entry/place/34332043
강화 어나더153 애견펜션,반려동물업,반려동반여행,펜션,인천광역시,강화군,화도면,동막리,211-13 번지,해안남로,1669-12 번,37.5944154,126.437672,23062,인천광역시 강화군 화도면 해안남로 1669-12,인천광역시 강화군 화도면 동막리 211-13,0507-1322-1530,https://www.another153.net/,연중무휴,매일 15:00~11:00,Y,변동,Y,해당없음,5kg 미만,제한사항 없음,Y,Y,애견 동반 펜션,"10,000원",2022.11.30,https://ldb-phinf.pstatic.net/20190928_4/1569646036702r0vQG_JPEG/b9JQvN5akDJSZDalAYwGage6.jpg,https://map.naver.com/p/entry/place/1040079489
강화 제임스펜션,반려동물업,반려동반여행,펜션,인천광역시,강화군,내가면,고천리,830-5 번지,강화서로227번길,51 번,37.71753294,126.384849,23018,인천광역시 강화군 내가면 강화서로227번길 51,인천광역시 강화군 내가면 고천리 830-5,,http://jmspension.com/,연중무휴,매일 15:00~11:00,Y,변동,Y,해당없음,5kg 이하,객실당 최대 2마리,Y,Y,애견 동반 펜션,"10,000원",2022.11.30,https://ldb-phinf.pstatic.net/20170301_238/1488343845261cBLLt_JPEG/186251538064181_0.jpeg,https://map.naver.com/p/entry/place/325700837
강화 터 애견펜션,반려동물업,반려동반여행,펜션,인천광역시,강화군,화도면,여차리,933 번지,해안남로,2297-26 번,37.61126367,126.384841,23061,인천광역시 강화군 화도면 해안남로 2297-26,인천광역시 강화군 화도면 여차리 933,,http://teopension.co.kr/,연중무휴,매일 15:00~11:00,Y,변동,Y,해당없음,7kg 미만,"객실당 최대 3마리, 13kg 이상 대형견 입실 불가",Y,Y,애견 동반 펜션,"20,000원",2022.11.30,https://ldb-phinf.pstatic.net/20210919_155/1632046616439mEbTU_JPEG/01.jpg,https://map.naver.com/p/entry/place/20152368
강화 팽나무 펜션,반려동물업,반려동반여행,펜션,인천광역시,강화군,화도면,장화리,800 번지,동녘말길,41-4 번,37.6174018,126.388439,23061,인천광역시 강화군 화도면 동녘말길 41-4,인천광역시 강화군 화도면 장화리 800,050-5765-0603,http://paengnamu.kr/,연중무휴,매일 15:00~11:00,Y,변동,Y,해당없음,5kg 이하,"객실당 최대 2마리, 애견용품 개별준비",Y,Y,애견 동반 펜션,"10,000원",2022.11.30,https://ldb-phinf.pstatic.net/20240719_205/1721351008719sgdtB_JPEG/3.jpg,https://map.naver.com/p/entry/place/1583869389
강화 해마루 애견동반 펜션,반려동물업,반려동반여행,펜션,인천광역시,강화군,화도면,여차리,910 번지,해안남로,2289 번,37.60908898,126.386917,23061,인천광역시 강화군 화도면 해안남로 2289,인천광역시 강화군 화도면 여차리 910,,https://xn--2s2b1pr5pnoum9b.com/,연중무휴,매일 15:00~11:00,Y,변동,Y,해당없음,15kg 미만,객실당 최대 2마리,Y,Y,애견 동반 펜션,"20,000원",2022.11.30,https://ldb-phinf.pstatic.net/20220916_243/1663317349914h16gR_JPEG/1.jpg,https://map.naver.com/p/entry/place/1243101228
강화 향기정원 애견동반펜션,반려동물업,반려동반여행,펜션,인천광역시,강화군,화도면,여차리,473 번지,해안남로,2166-39 번,37.60696815,126.400736,23061,인천광역시 강화군 화도면 해안남로 2166-39,인천광역시 강화군 화도면 여차리 473,,https://aromagarden.co.kr/,연중무휴,매일 15:00~11:00,Y,변동,Y,해당없음,8kg 미만,객실당 최대 2마리,Y,Y,애견 동반 펜션,"20,000원",2022.11.30,https://ldb-phinf.pstatic.net/20240918_94/1726616866201K0B4M_JPEG/1000009275.jpg,https://map.naver.com/p/entry/place/1743048026
강화도바다네스파펜션,반려동물업,반려동반여행,펜션,인천광역시,강화군,길상면,선두리,890-15 번지,해안남로,789-17 번,37.60624479,126.479886,23051,인천광역시 강화군 길상면 해안남로 789-17,인천광역시 강화군 길상면 선두리 890-15,050-5356-9622,http://badane.co.kr/,연중무휴,매일 15:00~11:00,Y,변동,Y,해당없음,5kg 이하,"객실당 최대 1마리, 애견용품 개인준비 필수",Y,Y,"애견 동반 펜션, 사전문의 필수","15,000원",2022.11.30,https://ldb-phinf.pstatic.net/20210819_72/1629365875303RlJOv_JPEG/-93kDoxWk05KiRtQAQdkBams.jpg,https://map.naver.com/p/entry/place/1689795835
강화돌담캠핑 글램핑,반려동물업,반려동반여행,펜션,인천광역시,강화군,삼산면,석모리,111-23 번지,삼산북로,397-1 번,37.70120264,126.328233,23005,인천광역시 강화군 삼산면 삼산북로 397-1,인천광역시 강화군 삼산면 석모리 111-23,0507-1382-5373,http://xn--o39aw5krsar7ax30fxni.com/,연중무휴,매일 15:00~11:00,Y,변동,Y,해당없음,16kg 미만,객실당 최대 5마리,Y,Y,애견 동반 펜션,"10,000원",2022.11.30,https://ldb-phinf.pstatic.net/20220714_273/1657804335709E43Um_JPEG/2109005605_7ojlrG9Z_17b859704ac8a0bdcb7d33a4a0dc051a50f240e4.jpg,https://map.naver.com/p/entry/place/1912822933
강화문예회관,반려동물업,반려동반여행,문예회관,인천광역시,강화군,강화읍,국화리,239 번지,고비고개로19번길,12 번,37.74536636,126.474573,23028,인천광역시 강화군 강화읍 고비고개로19번길 12,인천광역시 강화군 강화읍 국화리 239,032-930-7046,www.ghss.or.kr,"매주 토, 일, 법정공휴일",월~금 08:00~22:00,Y,변동,N,해당없음,해당없음,해당없음,Y,N,문예회관,없음,2022.11.30,,https://map.naver.com/p/entry/place/16549811
강화역사박물관,반려동물업,반려동반여행,박물관,인천광역시,강화군,하점면,부근리,350-4 번지,강화대로,994-19 번,37.77371034,126.435338,23014,인천광역시 강화군 하점면 강화대로 994-19,인천광역시 강화군 하점면 부근리 350-4,032-934-4296,www.ganghwa.go.kr,"1월1일, 설, 추석 당일, 매주 월요일",화~일 09:00~18:00,Y,3000원,Y,해당없음,모두 가능,야외만 반려동물 동반 가능,Y,Y,박물관,없음,2022.11.30,http://blogfiles.naver.net/MjAxNzEwMjBfMjQ4/MDAxNTA4NDg3NDc3MjU5._JxslQQXuga_i_yN-aE7QWf3teHzI6-b2EeA-uOe-Fwg.HUNGsb4L2b7kbyEx2SFocqkuMUwNWzSK86UWuhYoVPcg.JPEG.incheontogi/1.jpg#773x515,https://map.naver.com/p/entry/place/12442027
강화자연사박물관,반려동물업,반려동반여행,박물관,인천광역시,강화군,하점면,부근리,814 번지,강화대로,994-33 번,37.77459527,126.434721,23014,인천광역시 강화군 하점면 강화대로 994-33,인천광역시 강화군 하점면 부근리 814,032-934-4296,www.ganghwa.go.kr,"1월1일, 설, 추석 당일, 매주 월요일",화~일 09:00~18:00,Y,3000원,Y,해당없음,모두 가능,야외만 반려동물 동반 가능,Y,Y,박물관,없음,2022.11.30,http://blogfiles.naver.net/MjAxODAxMTdfMjY0/MDAxNTE2MTk1MjIyMDgz.sLy88X3wfMA7XsHJqmndYVZUs0_m2zj76LwtVPQ0r-Eg.k9wk5i_LCPlVkUU9OAliFk_m1Ye_K8Nn74sn2aiPbc0g.JPEG.sycho0517/%B0%AD%C8%AD%B5%B5%B0%A1%BA%BC%B8%B8%C7%D1%B0%F7_1.JPG#3264x2448,https://map.naver.com/p/entry/place/37027622
강화전쟁박물관,반려동물업,반려동반여행,박물관,인천광역시,강화군,강화읍,갑곳리,1040 번지,해안동로1366번길,18 번,37.73357906,126.515997,23027,인천광역시 강화군 강화읍 해안동로1366번길 18,인천광역시 강화군 강화읍 갑곳리 1040,032-934-4296,www.ganghwa.go.kr,매주 월요일,화~일 09:00~18:00,Y,900원,Y,해당없음,모두 가능,야외만 반려동물 동반 가능,Y,Y,박물관,없음,2022.11.30,https://ldb-phinf.pstatic.net/20150904_237/1441330395223fv5Np_JPEG/166781583521080_0.jpeg,https://map.naver.com/p/entry/place/36937970
개가사는그집 펜션,반려동물업,반려동반여행,펜션,경기도,가평군,가평읍,복장리,253-4 번지,복장포길,85 번,37.73923783,127.50469,12430,경기도 가평군 가평읍 복장포길 85,경기도 가평군 가평읍 복장리 253-4,0507-1410-1734,http://www.gaghouse.co.kr/,연중무휴,매일 15:00~11:00,Y,변동,Y,해당없음,모두 가능,제한사항 없음,Y,Y,"애견 동반 펜션, 카페, 수영장, 사전문의 필수","10,000원",2022.11.30,https://ldb-phinf.pstatic.net/20171127_178/1511763393490iVv7J_JPEG/y8f-9rcWV4RgifksjTuP1XS-.jpg,https://map.naver.com/p/entry/place/1089792219
개간지 애견카페,반려동물업,반려동물식당카페,카페,경기도,안산시 단원구,선부동,,1070-18 번지,선부광장1로,38 번,37.336637,126.809391,15240,경기도 안산시 단원구 선부광장1로 38,경기도 안산시 단원구 선부동 1070-18,031-401-5570,http://cafe.naver.com/ggjclub,매주 화요일,수~월 12:00~19:00,Y,5000원,Y,해당없음,모두 가능,제한사항 없음,Y,N,애견카페,없음,2022.11.30,https://ldb-phinf.pstatic.net/20240607_99/1717743922979dAhde_JPEG/IMG_1805.jpeg,https://map.naver.com/p/entry/place/32372394
개들랜드,반려동물업,반려동물식당카페,카페,울산광역시,울주군,서생면,용리,32-2 번지,홍골들길,41 번,35.36273127,129.324224,45014,울산광역시 울주군 서생면 홍골들길 41,울산광역시 울주군 서생면 용리 32-2,052-237-0222,http://doglandkorea.com/,연중무휴,매일 11:00~21:00,Y,없음,Y,해당없음,소형,접종 완료 필수,Y,N,"애견카페, 운동장",없음,2022.11.30,https://ldb-phinf.pstatic.net/20221111_127/1668136138341MoJbP_JPEG/F5E89EFB-FBEF-4223-B997-B8DE321C3EC0.jpeg,https://map.naver.com/p/entry/place/1850834958
개들의수다,반려동물업,반려동반여행,펜션,경기도,김포시,고촌읍,신곡리,394-1 번지,은행영사정로51번길,42 번,37.60457184,126.776563,10124,경기도 김포시 고촌읍 은행영사정로51번길 42,경기도 김포시 고촌읍 신곡리 394-1,031-989-4518,https://www.instagram.com/dog_chatter/,매주 목요일,"월~금 11:00~19:00, 토~일 10:00~19:00",Y,변동,Y,해당없음,소형/중형,제한사항 없음,Y,Y,"애견 동반 펜션, 애견 카페, 노키즈존, 사전문의 필수",없음,2022.11.30,https://ldb-phinf.pstatic.net/20230805_122/1691208473912VdOAh_PNG/11111.png,https://map.naver.com/p/entry/place/1679889586
개들의정원,반려동물업,반려동물식당카페,카페,경기도,이천시,설성면,상봉리,511-1 번지,설가로219번길,176 번,37.1581927,127.504491,17409,경기도 이천시 설성면 설가로219번길 176,경기도 이천시 설성면 상봉리 511-1,031-642-2373,https://www.instagram.com/gardenfordogs/,매주 월요일,화~일 12:00~19:00,Y,7000원,Y,해당없음,12kg 이하,제한사항 없음,Y,Y,"애견카페, 운동장, 8세 이상 입장 가능","8,000원",2022.11.30,https://ldb-phinf.pstatic.net/20190507_56/1557235127802kkWMY_JPEG/GLu79sjX0HZXnADx4pS2ZJUj.jpg,https://map.naver.com/p/entry/place/1255804327
개떼놀이터,반려동물업,반려동물식당카페,식당,경기도,남양주시,진건읍,사능리,224-22 번지,사릉로280번길,7 번,37.65005161,127.190442,12140,경기도 남양주시 진건읍 사릉로280번길 7,경기도 남양주시 진건읍 사능리 224-22,031-529-9955,정보없음,연중무휴,매일 11:00~22:00,Y,변동,Y,해당없음,18kg 미만,제한사항 없음,Y,Y,"애견 동반 식당(수, 목 제외)",없음,2022.11.30,https://ldb-phinf.pstatic.net/20241001_35/17277934442162HFHg_JPEG/%C1%A6%B8%F1%C0%BB-%C0%D4%B7%C2%C7%D8%C1%D6%BC%BC%BF%E4_-001_%2845%29.jpg,https://map.naver.com/p/entry/place/285718237
개떼놀이터 용인,반려동물업,반려동물식당카페,카페,경기도,용인시 기흥구,마북동,,494-1 번지,용구대로2335번길,47 번,37.29852289,127.106545,16922,경기도 용인시 기흥구 용구대로2335번길 47,경기도 용인시 기흥구 마북동 494-1,031-282-2355,https://mydogyongin.modoo.at,연중무휴,매일 11:00~24:00,Y,10000원,Y,해당없음,15kg 미만,"진도견, 시바견, 웰시코기, 닥스훈트 입장 불가",Y,Y,"애견카페, 운동장, 13세 이상 입장 가능",없음,2022.11.30,https://ldb-phinf.pstatic.net/20171021_147/150851507939225RsT_JPEG/8G8YXKZDAa3z3JXKMhkq4RE1.jpeg.jpg,https://map.naver.com/p/entry/place/1498207038
개떼놀이터 인천점,반려동물업,반려동물식당카페,카페,인천광역시,계양구,목상동,,167 번지,다남로,278 번,37.57027941,126.708887,21014,인천광역시 계양구 다남로 278,인천광역시 계양구 목상동 167,0507-1413-1950,http://www.instagram.com/mydog_incheon,연중무휴,매일 11:00~01:00,Y,변동,Y,해당없음,6~18kg,제한사항 없음,Y,Y,"애견카페, 운동장, 수영장, 셀프목욕",없음,2022.11.30,https://ldb-phinf.pstatic.net/20240913_270/1726215430179C2BTJ_JPEG/IMG_7163.jpeg,https://map.naver.com/p/entry/place/38765911
개라다이스,반려동물업,반려동물식당카페,카페,서울특별시,관악구,봉천동,,968-35 번지,봉천로,283 번,37.48766129,126.932624,8720,서울특별시 관악구 봉천로 283,서울특별시 관악구 봉천동 968-35,0507-1373-8222,http://cafe.naver.com/gaeradise,연중무휴,매일 07:30~20:00,Y,변동,Y,해당없음,모두 가능,제한사항 없음,Y,N,"애견카페, 호텔",없음,2022.11.30,https://ldb-phinf.pstatic.net/20230913_163/1694604974735LqUgk_JPEG/1000011256.jpg,https://map.naver.com/p/entry/place/38576478
개리비안베이,반려동물업,반려동반여행,펜션,충청남도,태안군,소원면,법산리,72 번지,법산길,584-40 번,36.75522415,126.211853,32119,충청남도 태안군 소원면 법산길 584-40,충청남도 태안군 소원면 법산리 72,0507-1330-8189,http://garibbeanbay.com/,연중무휴,매일 15:00~11:00,Y,변동,Y,해당없음,10kg 미만,"입질, 공격성 심한 경우, 맹견 입실 불가, 객실당 최대 4마리",Y,Y,애견 동반 펜션,"10,000원",2022.11.30,https://ldb-phinf.pstatic.net/20160530_44/1464572200322v0O2o_JPEG/176480506659336_0.jpeg,https://map.naver.com/p/entry/place/37916083
개린이세상,반려동물업,반려동물식당카페,카페,울산광역시,남구,삼산동,,227-1 번지,정동로80번길,4 번,35.54087333,129.344658,44712,울산광역시 남구 정동로80번길 4,울산광역시 남구 삼산동 227-1,0507-1479-7177,정보없음,연중무휴,매일 08:00~19:00,Y,변동,Y,해당없음,모두 가능,제한사항 없음,Y,N,애견카페,없음,2022.11.30,https://ldb-phinf.pstatic.net/20240313_31/17103331304653b5WQ_JPEG/Templify-28F505FC-A1A6-43A7-A0B5-F10D0E820559.jpeg,https://map.naver.com/p/entry/place/1019720536
개모임,반려동물업,반려동물식당카페,카페,전라북도,군산시,나운동,,522-2 번지,하나운로,122 번,35.96888143,126.704299,54135,전라북도 군산시 하나운로 122,전라북도 군산시 나운동 522-2,063-466-0229,http://cafe.naver.com/gunsandogmeeting,매주 수요일,목~화 09:00~19:00,Y,변동,Y,해당없음,소형,제한사항 없음,Y,N,"애견카페, 유치원, 호텔",없음,2022.11.30,https://ldb-phinf.pstatic.net/20240301_67/1709260931949wrfza_JPEG/KakaoTalk_20240301_114111781_02.jpg,https://map.naver.com/p/entry/place/37492093
개뭉치반려견세터,반려동물업,반려동물식당카페,카페,전라남도,여수시,소라면,복산리,35-8 번지,서부로,192-87 번,34.76870746,127.612537,59648,전라남도 여수시 충무로 73,전라남도 여수시 충무동 347-1,0507-1317-6286,http://www.instagram.com/pb.ryu,연중무휴,매일 08:00~19:00,N,변동,Y,해당없음,모두 가능,제한사항 없음,Y,N,"애견카페, 운동장, 수영장",없음,2022.11.30,https://ldb-phinf.pstatic.net/20240723_162/1721688493723C2KVT_JPEG/KakaoTalk_20240723_074714284_01.jpg,https://map.naver.com/p/entry/place/1554924622
개상전 애견카페,반려동물업,반려동물식당카페,카페,서울특별시,은평구,대조동,,14-27 번지,통일로,727-5 번,37.61021895,126.929202,3397,서울특별시 은평구 통일로 727-5,서울특별시 은평구 대조동 14-27,070-4404-1212,https://www.instagram.com/gaesangjeon/?utm_source=ig_profile_share&igshid=p7pa7v4n8y9z,연중무휴,매일 11:00~21:00,Y,변동,Y,해당없음,모두 가능,제한사항 없음,Y,N,"애견카페, 호텔, 유치원",없음,2022.11.30,https://ldb-phinf.pstatic.net/20211124_119/1637696800857KOy28_JPEG/1637599054540-2.jpg,https://map.naver.com/p/entry/place/36543826
개스타하우스,반려동물업,반려동물식당카페,카페,경기도,고양시 일산동구,성석동,,590-1 번지,진밭로,7-29 번,37.70055446,126.800071,10312,경기도 고양시 일산동구 진밭로 7-29,경기도 고양시 일산동구 성석동 590-1,,http://dogstarhouse.modoo.at,매주 수요일,목~화 10:00~20:00,Y,변동,Y,해당없음,10kg 이하,제한사항 없음,Y,Y,"애견카페, 운동장, 수영장, 12세 이상 입장 가능",없음,2022.11.30,https://ldb-phinf.pstatic.net/20180818_7/1534581779434LM7Nv_JPEG/Dt_80VH1R6LGfwxziOPkOQvb.jpg,https://map.naver.com/p/entry/place/1341695047
개심사,반려동물업,반려동반여행,여행지,충청남도,서산시,운산면,신창리,1 번지,개심사로,321-86 번,36.74690048,126.589969,31949,충청남도 서산시 운산면 개심사로 321-86,충청남도 서산시 운산면 신창리 1,041-688-2256,https://gaesimsa.modoo.at/,연중무휴,매일 00:00~24:00,Y,없음,Y,해당없음,모두 가능,"목줄, 배변봉투",N,Y,관광지,없음,2022.11.30,https://ldb-phinf.pstatic.net/20150901_123/14410604192986nQXx_JPEG/116281533170103_0.jpg,https://map.naver.com/p/entry/place/13094398
개울가 오토 캠핑장,반려동물업,반려동반여행,펜션,경기도,가평군,설악면,가일리,185-3 번지,유명로,654-58 번,37.60300317,127.494925,12473,경기도 가평군 설악면 유명로 654-58,경기도 가평군 설악면 가일리 185-3,031-584-7958,http://www.gaewoolga.co.kr/,연중무휴,매일 13:00~11:00,Y,변동,N,해당없음,해당없음,해당없음,Y,Y,펜션,없음,2022.11.30,https://ldb-phinf.pstatic.net/20210222_214/1613972159353OVsXu_JPEG/Untitled-7.jpg,https://map.naver.com/p/entry/place/20729737
개이득 애견카페,반려동물업,반려동물식당카페,카페,경상북도,구미시,봉곡동,,294-8 번지,봉곡남로,127 번,36.15096813,128.315596,39206,경상북도 구미시 봉곡남로 127,경상북도 구미시 봉곡동 294-8,054-444-4430,정보없음,매주 월요일,화~일 11:00~21:00,N,변동,Y,해당없음,모두 가능,제한사항 없음,Y,N,애견카페,없음,2022.11.30,https://ldb-phinf.pstatic.net/20160316_63/1458117728124Hfswd_JPEG/176266577227350_0.jpeg,https://map.naver.com/p/entry/place/37663976
개인공간,반려동물업,반려동반여행,펜션,경상북도,경주시,천북면,신당리,1115-9 번지,산업로,4694-23 번,35.89387536,129.240686,38041,경상북도 경주시 천북면 산업로 4694-23,경상북도 경주시 천북면 신당리 1115-9,,https://blog.naver.com/rlatpwls2045,연중무휴,매일 15:00~11:00,Y,변동,Y,해당없음,모두 가능,"목줄 필수, 맹견 입장 불가",Y,Y,"애견 동반 펜션, 사전문의 필수",없음,2022.11.30,https://ldb-phinf.pstatic.net/20210705_91/1625452742196Eqscn_JPEG/sdqrbUCU-HQMi848U47GtpJ0.jpg,https://map.naver.com/p/entry/place/1484576199
개털깎는남자,반려동물업,반려동물식당카페,카페,경기도,안양시 동안구,호계동,,894-3 번지,경수대로,805 번,37.39151118,126.944251,14040,경기도 안양시 동안구 경수대로 805,경기도 안양시 동안구 호계동 894-3,031-385-1182,http://blog.naver.com/ash11015/,매주 월요일,화~일 12:00~19:00,Y,변동,Y,해당없음,모두 가능,제한사항 없음,Y,N,"애견카페, 호텔, 미용",없음,2022.11.30,https://ldb-phinf.pstatic.net/20221216_290/1671123655689iG0QW_JPEG/1000007331.jpg,https://map.naver.com/p/entry/place/19536244
개토피아,반려동물업,반려동물식당카페,카페,경기도,고양시 덕양구,화정동,,981-1 번지,화신로272번길,48 번,37.63295849,126.831962,10500,경기도 고양시 덕양구 화신로272번길 48,경기도 고양시 덕양구 화정동 981-1,070-8830-6122,정보없음,연중무휴,매일 13:00~21:00,Y,6000원,Y,해당없음,모두 가능,제한사항 없음,Y,N,애견카페,없음,2022.11.30,http://blogfiles.naver.net/20160207_191/munee821_1454856117061pilmP_JPEG/SAM_4608.JPG#740x493,https://map.naver.com/p/entry/place/36166730
개팔자상팔자펜션,반려동물업,반려동반여행,펜션,강원도,홍천군,서면,굴업리,125 번지,한서로,2278-9 번,37.61005847,127.684292,25103,강원도 홍천군 서면 한서로 2278-9,강원도 홍천군 서면 굴업리 125,0507-1364-6599,http://개팔자상팔자.com,연중무휴,매일 15:00~11:00,Y,변동,Y,해당없음,8kg 이하,"입질, 공격성 있는 경우 입장 제한",Y,Y,"애견 동반 펜션, 애견수영장, 사전문의 필수, 추가인원 15,000원","10,000원",2022.11.30,https://ldb-phinf.pstatic.net/20240728_96/1722156237224EUjC4_JPEG/20240727_143330.jpg,https://map.naver.com/p/entry/place/13133538
개화예술공원,반려동물업,반려동반여행,여행지,충청남도,보령시,성주면,개화리,177-2 번지,,,36.3133478,126.658555,33486,,충청남도 보령시 성주면 개화리 177-2,041-931-6789,정보없음,연중무휴,매일 09:00~18:00,Y,5000원,Y,해당없음,모두 가능,"케이지, 안기, 배변봉투",N,Y,공원,없음,2022.11.30,https://ldb-phinf.pstatic.net/20231006_190/1696604232506QLVg8_JPEG/IMG_7944.jpeg,https://map.naver.com/p/entry/place/12024809
갯골생태공원,반려동물업,반려동반여행,여행지,경기도,시흥시,장곡동,,724-32 번지,동서로,287 번,37.38979099,126.781255,14971,경기도 시흥시 동서로 287,경기도 시흥시 장곡동 724-32,031-488-6900,정보없음,연중무휴,매일 00:00~24:00,Y,없음,Y,해당없음,모두 가능,"목줄, 배변봉투",N,Y,공원,없음,2022.11.30,https://ldb-phinf.pstatic.net/20191012_68/1570876725204cnXtt_JPEG/f2xojSraOCxZA8jVHh6pEIo_.jpg,https://map.naver.com/p/entry/place/12958532
거북선공원,반려동물업,반려동반여행,여행지,전라남도,여수시,학동,,162 번지,거북선공원2길,10 번,34.76059056,127.666721,59676,전라남도 여수시 거북선공원2길 10,전라남도 여수시 학동 162,061-659-4627,정보없음,연중무휴,매일 00:00~24:00,Y,없음,Y,해당없음,모두 가능,"목줄, 배변봉투",N,Y,공원,없음,2022.11.30,https://ldb-phinf.pstatic.net/20150901_96/1441038233581e1R1i_JPEG/116574557161324_0.jpg,https://map.naver.com/p/entry/place/13447992
거제 도그펜션,반려동물업,반려동반여행,펜션,경상남도,거제시,일운면,망치리,9-42 번지,북병산로,475-9 번,34.81788763,128.675148,53329,경상남도 거제시 일운면 북병산로 475-9,경상남도 거제시 일운면 망치리 9-42,,http://dogpension.kr/,연중무휴,매일 15:00~11:00,Y,변동,Y,해당없음,7kg 미만,제한사항 없음,Y,Y,"애견 동반 펜션, 애견수영장, 운동장","20,000원",2022.11.30,https://ldb-phinf.pstatic.net/20201026_152/16036906222616DR1y_JPEG/a_1_KTH00305.jpg,https://map.naver.com/p/entry/place/11689109
거제 블루캐슬 애견펜션,반려동물업,반려동반여행,펜션,경상남도,거제시,일운면,망치리,759 번지,거제대로,1477 번,34.79099186,128.665195,53329,경상남도 거제시 일운면 거제대로 1477,경상남도 거제시 일운면 망치리 759,0507-1362-2918,http://xn--939a6k862a6oin5e2eo72a8jv8rd.com/,연중무휴,매일 15:00~11:00,Y,변동,Y,해당없음,모두 가능,목줄,Y,Y,"애견 동반 펜션, 사전문의 필수","10,000원",2022.11.30,https://ldb-phinf.pstatic.net/20211211_70/1639200544805J9EVn_JPEG/photo_20211209_144553.jpg,https://map.naver.com/p/entry/place/1010012688
거제문화예술회관,반려동물업,반려동반여행,문예회관,경상남도,거제시,장승포동,,426-33 번지,장승로,145 번,34.86717837,128.723358,53322,경상남도 거제시 장승로 145,경상남도 거제시 장승포동 426-33,055-680-1000,www.geojeart.or.kr,전시공연에 따라 변동,전시공연에 따라 변동,Y,변동,N,해당없음,해당없음,해당없음,Y,N,문예회관,없음,2022.11.30,https://ldb-phinf.pstatic.net/20230707_293/16887161445145E4vD_JPEG/1469615239795.jpeg,https://map.naver.com/p/entry/place/11549173
거제민속박물관,반려동물업,반려동반여행,박물관,경상남도,거제시,연초면,명동리,390 번지,대금산로,339-7 번,34.95011436,128.677436,53210,경상남도 거제시 연초면 대금산로 339-7,경상남도 거제시 연초면 명동리 390,055-637-3722,https://korean.visitkorea.or.kr/detail/ms_detail.do?cotid=d2ba25e4-a9fa-4bc5-a94e-4482f6fd464e,매주 일요일,화~일 09:30~16:30,Y,2000원,Y,해당없음,모두 가능,야외만 반려동물 동반 가능,Y,Y,박물관,없음,2022.11.30,https://ldb-phinf.pstatic.net/20150901_259/1441047650500tvOuX_JPEG/116859498920132_0.jpg,https://map.naver.com/p/entry/place/13505530
거제박물관,반려동물업,반려동반여행,박물관,경상남도,거제시,옥포동,,1565 번지,거제대로,3791 번,34.89403977,128.686211,53226,경상남도 거제시 거제대로 3791,경상남도 거제시 옥포동 1565,055-687-6790,www.geoje.museum.or.kr,"1월1일, 설, 추석 당일, 매주 월요일",화~일 09:00~18:00,Y,3000원,N,해당없음,해당없음,해당없음,Y,N,박물관,없음,2022.11.30,https://ldb-phinf.pstatic.net/20150901_259/1441047650500tvOuX_JPEG/116859498920132_0.jpg,https://map.naver.com/p/entry/place/13505530
거제봄날펜션,반려동물업,반려동반여행,펜션,경상남도,거제시,동부면,오송리,700-23 번지,가배오송길,139 번,34.79255804,128.581313,53330,경상남도 거제시 동부면 가배오송길 139,경상남도 거제시 동부면 오송리 700-23,,http://bomnalpension.modoo.at/,연중무휴,매일 15:00~11:00,Y,변동,Y,해당없음,10kg 이하,제한사항 없음,Y,Y,"애견 동반 펜션, 사전문의 필수",없음,2022.11.30,https://ldb-phinf.pstatic.net/20240318_86/1710766424023xPHtB_JPEG/IMG_6547.jpeg,https://map.naver.com/p/entry/place/38522650
거제어촌민속전시관,반려동물업,반려동반여행,박물관,경상남도,거제시,일운면,지세포리,929-88 번지,지세포해안로,41 번,34.83369365,128.701885,53328,경상남도 거제시 일운면 지세포해안로 41,경상남도 거제시 일운면 지세포리 929-88,055-639-8270,https://www.gmdc.co.kr/_marine/,매주 월요일,화~일 09:00~18:00,Y,3000원,Y,해당없음,모두 가능,야외만 반려동물 동반 가능,Y,Y,박물관,없음,2022.11.30,http://blogfiles.naver.net/MjAxNzA3MjdfMTM4/MDAxNTAxMDkwMDY1NDE2.UhQ4-UTTTth-8PhCd0A_aeAn7DMWzivBdX-3fHhvYfYg.PCHAIohgVnR7rDkhZxO0-mmkiDNDJDqjZpV1C-sXzt4g.JPEG.skygirl211/IMG_5038.jpg#900x600,https://map.naver.com/p/entry/place/32118275
거제해돋이 애견펜션,반려동물업,반려동반여행,펜션,경상남도,거제시,장목면,송진포리,198-13 번지,신촌길,13-11 번,34.99896429,128.692509,53200,경상남도 거제시 장목면 신촌길 13-11,경상남도 거제시 장목면 송진포리 198-13,0507-1467-2038,http://soos5150.com/,연중무휴,매일 15:00~11:00,Y,변동,Y,해당없음,10kg 미만,"입질, 공격성 있는 경우 입장 제한, 최대 3마리",Y,Y,"애견 동반 펜션, 사전문의 필수","20,000원",2022.11.30,https://ldb-phinf.pstatic.net/20240716_283/1721105739890KeoEt_JPEG/haedogdang_MV8EsK7w_B4D9BFEEB7CEB5E5.jpg,https://map.naver.com/p/entry/place/1917414455
거창군문화센터,반려동물업,반려동반여행,문예회관,경상남도,거창군,거창읍,김천리,216-5 번지,수남로,2181 번,35.67430045,127.910313,50147,경상남도 거창군 거창읍 수남로 2181,경상남도 거창군 거창읍 김천리 216-5,055-940-8450,http://www.gccf.or.kr/,전시공연에 따라 변동,전시공연에 따라 변동,Y,변동,N,해당없음,해당없음,해당없음,Y,N,문예회관,없음,2022.11.30,,https://map.naver.com/p/entry/place/1934372008
거창박물관,반려동물업,반려동반여행,박물관,경상남도,거창군,거창읍,김천리,216-5 번지,수남로,2181 번,35.67430045,127.910313,50147,경상남도 거창군 거창읍 수남로 2181,경상남도 거창군 거창읍 김천리 216-5,055-940-8740,www.geochang.go.kr/museum,"1월1일, 설, 추석 당일, 매주 월요일","화~일 11~2월 09:00~17:00, 3~12월 09:00~18:00",Y,없음,Y,해당없음,모두 가능,야외만 반려동물 동반 가능,Y,Y,박물관,없음,2022.11.30,https://ldb-phinf.pstatic.net/20150901_265/1441038649218OHsrt_JPEG/11783601_0.jpg,https://map.naver.com/p/entry/place/11783601
건국대학교박물관,반려동물업,반려동반여행,박물관,서울특별시,광진구,화양동,,1 번지,능동로,120 번,37.53918267,127.074712,5029,서울특별시 광진구 능동로 120,서울특별시 광진구 화양동 1,02-450-3881,http://museum.konkuk.ac.kr/,"매주 토, 일, 법정공휴일, 개교기념일",월~금 10:00~16:00,Y,없음,N,해당없음,해당없음,해당없음,Y,N,박물관,없음,2022.11.30,https://ldb-phinf.pstatic.net/20150901_183/14410390455278zeRK_JPEG/11785116_0.jpg,https://map.naver.com/p/entry/place/11785116
검단선사박물관,반려동물업,반려동반여행,박물관,인천광역시,서구,원당동,,824-11 번지,고산후로121번길,7 번,37.59444584,126.698682,22647,인천광역시 서구 고산후로121번길 7,인천광역시 서구 원당동 824-11,032-440-6790,www.museum.incheon.go.kr,"1월1일, 매주 월요일",화~일 09:00~18:00,Y,없음,Y,해당없음,모두 가능,야외만 반려동물 동반 가능,Y,Y,박물관,없음,2022.11.30,https://ldb-phinf.pstatic.net/20200521_67/1590020397457XGFka_JPEG/uc4uqu7U6_B8UZVnv_FhmurV.jpg,https://map.naver.com/p/entry/place/20108015
게스트하우스 하하네,반려동물업,반려동반여행,펜션,서울특별시,마포구,신수동,,308-1 번지,토정로17길,31-8 번,37.54624807,126.935585,4088,서울특별시 마포구 토정로17길 31-8,서울특별시 마포구 신수동 308-1,0507-1344-4069,정보없음,연중무휴,매일 15:00~11:00,Y,변동,Y,해당없음,모두 가능,제한사항 없음,Y,Y,애견 동반 펜션,"30,000원",2022.11.30,https://ldb-phinf.pstatic.net/20210201_251/16121807501158lNgx_JPEG/EaVyWCRKyUIri_8vcqtEV8wJ.jpg,https://map.naver.com/p/entry/place/1920580384
게으른악어,반려동물업,반려동물식당카페,카페,충청북도,충주시,살미면,신당리,533 번지,월악로,927 번,36.92397489,128.048075,27491,충청북도 충주시 살미면 월악로 927,충청북도 충주시 살미면 신당리 533,043-724-9009,https://www.instagram.com/lazy._.caiman/,연중무휴,매일 10:00~19:00,Y,변동,Y,해당없음,모두 가능,"목줄 필수, 실외만 이용 가능",Y,Y,애견카페,없음,2022.11.30,https://ldb-phinf.pstatic.net/20210804_285/16280665849613gRsd_JPEG/D-e_PDg61cx73VFOk29-1JSo.jpeg.jpg,https://map.naver.com/p/entry/place/1668594847
겟썸커피,반려동물업,반려동물식당카페,카페,서울특별시,강남구,신사동,,551-32 번지,논현로159길,46-6 번,37.5224347,127.024464,6029,서울특별시 강남구 논현로159길 46-6,서울특별시 강남구 신사동 551-32,070-4223-3619,http://instagram.com/get.some.coffee,매주 월요일,화~일 10:00~21:00,N,변동,Y,해당없음,모두 가능,제한사항 없음,Y,N,애견카페,없음,2022.11.30,https://ldb-phinf.pstatic.net/20200723_137/1595473735438X9Wiu_JPEG/MVA7U4WEbdQ1Rc972qr1RdyI.jpeg.jpg,https://map.naver.com/p/entry/place/1382019243
겨울이 머무는 집,반려동물업,반려동물식당카페,카페,서울특별시,마포구,서교동,,409-18 번지,와우산로17길,19-5 번,37.54995731,126.921865,4049,서울특별시 마포구 와우산로17길 19-5,서울특별시 마포구 서교동 409-18,0507-1315-9151,정보없음,매주 화요일,수~월 13:00~21:00,N,12000원,N,해당없음,해당없음,해당없음,Y,N,애견카페,없음,2022.11.30,https://ldb-phinf.pstatic.net/20210520_277/1621492591538nnboF_PNG/9h3WPVO7cqmXtPE8xkpjOeC8.png,https://map.naver.com/p/entry/place/1205588089
견로당,반려동물업,반려동물식당카페,카페,강원도,인제군,인제읍,원대리,671-13 번지,자작나무숲길,1061-5 번,38.00390466,128.226713,24639,강원도 인제군 인제읍 자작나무숲길 1061-5,강원도 인제군 인제읍 원대리 671-13,0507-1430-1362,https://www.instagram.com/gyunrodang.cafe/,"매주 화, 수, 목",금~월 10:30~18:00,Y,변동,Y,해당없음,모두 가능,제한사항 없음,Y,Y,"애견카페, 만 11세 이상 입장 가능",없음,2022.11.30,https://ldb-phinf.pstatic.net/20240709_23/1720525222665XFkzy_JPEG/IMG_6369.jpeg,https://map.naver.com/p/entry/place/1715109328
견복궁,반려동물업,반려동물식당카페,카페,경기도,김포시,운양동,,823-1 번지,운양로97번길,83-13 번,37.66184771,126.679314,10072,경기도 김포시 운양로97번길 83-13,경기도 김포시 운양동 823-1,031-982-6261,https://www.instagram.com/gyeonbokgung/,"매주 토, 일",월~금 08:30~19:00,Y,변동,Y,해당없음,15kg 이하,제한사항 없음,Y,Y,"애견카페, 호텔, 유치원",없음,2022.11.30,https://ldb-phinf.pstatic.net/20230206_154/1675655982062UYQ7c_JPEG/150241AA-799E-4BC2-80EB-0A6D88ECA76E.jpeg,https://map.naver.com/p/entry/place/1667268118
견인차,반려동물업,반려동물식당카페,카페,경상남도,양산시,삼호동,,188-4 번지,대운로,274 번,35.41099912,129.174944,50525,경상남도 양산시 대운로 274,경상남도 양산시 삼호동 188-4,0507-1407-3566,http://www.dogcar.co.kr/,매주 월요일,화~일 10:00~21:00,Y,변동,Y,해당없음,모두 가능,제한사항 없음,Y,Y,애견카페,없음,2022.11.30,https://ldb-phinf.pstatic.net/20160706_62/14677907532111vWQ9_JPEG/176651624466117_0.jpeg,https://map.naver.com/p/entry/place/38281998
결성농요농사박물관,반려동물업,반려동반여행,박물관,충청남도,홍성군,결성면,읍내리,12-1 번지,구성남로,91 번,36.53262479,126.548969,32212,충청남도 홍성군 결성면 구성남로 91,충청남도 홍성군 결성면 읍내리 12-1,041-642-3256,www.history.hongseong.go.kr,"매주 월, 화",수~일 09:00~17:00,Y,없음,N,해당없음,해당없음,해당없음,Y,Y,박물관,없음,2022.11.30,http://blogfiles.naver.net/MjAxNzA5MThfMTAy/MDAxNTA1NzA5MzY5MDY0.deYC2Pjg8-KwhQGqumqI4fOYTKGR4PBQlsKw85aCVj8g.ur-l3ZR4NzvTgftvYatXUXh897M-r8_EdOWSKDLakBMg.JPEG.hsgstory/1.jpg#740x493,https://map.naver.com/p/entry/place/31076661
겸재정선미술관,반려동물업,반려동반여행,미술관,서울특별시,강서구,가양동,,243-1 번지,양천로47길,36 번,37.57222297,126.838412,7522,서울특별시 강서구 양천로47길 36,서울특별시 강서구 가양동 243-1,02-2659-2206,www.gjjs.or.kr,"1월1일, 설, 추석 당일, 매주 월요일",화~일 10:00~18:00,Y,변동,N,해당없음,해당없음,해당없음,Y,Y,미술관,없음,2022.11.30,https://ldb-phinf.pstatic.net/20210618_23/1623978899692F6NaY_JPEG/AKsmf9hf9XJPorcQCYqwJBi9.jpg,https://map.naver.com/p/entry/place/1332876103
경기대학교소성박물관,반려동물업,반려동반여행,박물관,경기도,수원시 영통구,이의동,,94-6 번지,광교산로,154-42 번,37.29801369,127.033117,16227,경기도 수원시 영통구 광교산로 154-42,경기도 수원시 영통구 이의동 산 94-6,031-249-8901,https://blog.naver.com/kgumuseum,연중무휴,매일 10:00~4:30,Y,없음,N,해당없음,해당없음,해당없음,Y,N,박물관,없음,2022.11.30,https://ldb-phinf.pstatic.net/20230712_91/16891365391057wmeI_JPEG/KakaoTalk_20230602_162345132.jpg,https://map.naver.com/p/entry/place/12346314
경기도미술관,반려동물업,반려동반여행,미술관,경기도,안산시 단원구,초지동,,667 번지,동산로,268 번,37.32507855,126.80999,15385,경기도 안산시 단원구 동산로 268,경기도 안산시 단원구 초지동 667,031-481-7000,http://gmoma.ggcf.kr,"1월1일, 설, 추석 당일, 매주 월요일",화~일 10:00~18:00,Y,없음,Y,해당없음,모두 가능,"야외만 반려동물 동반 가능, 목줄",Y,Y,미술관,없음,2022.11.30,https://ldb-phinf.pstatic.net/20201109_271/1604898400647cGSpS_JPEG/toxNYiwRMmBPucj-AdvR7UfM.jpg,https://map.naver.com/p/entry/place/12398024
경기도박물관,반려동물업,반려동반여행,박물관,경기도,용인시 기흥구,상갈동,,496 번지,상갈로,6 번,37.26818786,127.108653,17072,경기도 용인시 기흥구 상갈로 6,경기도 용인시 기흥구 상갈동 496,031-288-5400,http://musenet.ggcf.kr,"1월1일, 설, 추석 당일, 매주 월요일",화~일 09:00~18:00,Y,없음,Y,해당없음,모두 가능,야외만 반려동물 동반 가능,Y,Y,박물관,없음,2022.11.30,https://ldb-phinf.pstatic.net/20210902_45/16305593752601CLUE_JPEG/KwHQaAbrW41OZ-pCGxOKVilh.jpg,https://map.naver.com/p/entry/place/11783340
경기도어린이박물관,반려동물업,반려동반여행,박물관,경기도,용인시 기흥구,상갈동,,496 번지,상갈로,6 번,37.26818786,127.108653,17072,경기도 용인시 기흥구 상갈로 6,경기도 용인시 기흥구 상갈동 496,031-270-8600,https://gcm.ggcf.kr/,"1월1일, 설, 추석 당일, 매주 월요일",화~일 10:00~17:30,Y,4000원,Y,해당없음,모두 가능,야외만 반려동물 동반 가능,Y,Y,박물관,없음,2022.11.30,https://ldb-phinf.pstatic.net/20210914_5/1631600951710hqV6o_JPEG/JfTOBnt_fDfTRrlvlx5x5fc0.jpg,https://map.naver.com/p/entry/place/13172610
경기도자박물관,반려동물업,반려동반여행,박물관,경기도,광주시,곤지암읍,삼리,72-1 번지,경충대로,727 번,37.35028278,127.334786,12805,경기도 광주시 곤지암읍 경충대로 727,경기도 광주시 곤지암읍 삼리 72-1,031-799-1500,http://www.ggcm.or.kr,"1월1일, 설, 추석 당일, 매주 월요일",화~일 09:30~18:00,Y,3000원,Y,해당없음,모두 가능,야외만 반려동물 동반 가능,Y,Y,박물관,없음,2022.11.30,https://ldb-phinf.pstatic.net/20240315_272/1710484783759FfegQ_JPEG/KakaoTalk_20220414_142236734.jpg,https://map.naver.com/p/entry/place/34557299
경기북부어린이박물관,반려동물업,반려동반여행,박물관,경기도,동두천시,상봉암동,,162 번지,평화로2910번길,46 번,37.94457481,127.064321,11307,경기도 동두천시 평화로2910번길 46,경기도 동두천시 상봉암동 162,031-868-9610,http://ngcm.ggcf.kr,매주 월요일,화~일 10:00~17:30,Y,4000원,Y,해당없음,모두 가능,야외만 반려동물 동반 가능,Y,Y,박물관,없음,2022.11.30,https://ldb-phinf.pstatic.net/20201019_173/1603091563700RY409_JPEG/phBS7kuJwspz-oq4YXg2ZuoV.jpg,https://map.naver.com/p/entry/place/37881828
경기아트센터,반려동물업,반려동반여행,문예회관,경기도,수원시 팔달구,인계동,,1117 번지,효원로307번길,20 번,37.26158333,127.03757,16488,경기도 수원시 팔달구 효원로307번길 20,경기도 수원시 팔달구 인계동 1117,031-230-3200,www.ggac.or.kr,연중무휴,전시공연에 따라 변동,Y,변동,N,해당없음,해당없음,해당없음,Y,N,문예회관,없음,2022.11.30,https://ldb-phinf.pstatic.net/20200306_261/1583482160673N3COS_JPEG/NkTd7AL412nIDVvmLRTbAUx6.jpg,https://map.naver.com/p/entry/place/13281060
경남대학교박물관,반려동물업,반려동반여행,박물관,경상남도,창원시 마산합포구,월영동,,449 번지,경남대학로,7 번,35.18432093,128.555096,51767,경상남도 창원시 마산합포구 경상남도대학로 7,경상남도 창원시 마산합포구 월영동 449,055-249-2924,https://museum.kyungnam.ac.kr/main/,"법정공휴일, 매주 토, 일","월~금 10:00~17:00, 방학기간 월~금 10:00~15:00",Y,없음,N,해당없음,해당없음,해당없음,Y,N,박물관,없음,2022.11.30,https://ldb-phinf.pstatic.net/20150831_237/1441006777514RcFJI_JPEG/11620573_0.jpg,https://map.naver.com/p/entry/place/11620573
경남도립미술관,반려동물업,반려동반여행,미술관,경상남도,창원시 의창구,퇴촌동,,134-1 번지,용지로,296 번,35.23946357,128.690857,51154,경상남도 창원시 의창구 용지로 296,경상남도 창원시 의창구 퇴촌동 산 134-1,055-254-4600,www.gyeongnam.go.kr/gam,매주 월요일,화~일 10:00~18:00,Y,1000원,N,해당없음,해당없음,해당없음,Y,Y,미술관,없음,2022.11.30,https://ldb-phinf.pstatic.net/20230317_276/167901953472527BKr_JPEG/%B0%E6%B3%B2%B5%B5%B8%B3%B9%CC%BC%FA%B0%FC_%C0%FC%B0%E6%BB%E7%C1%F8_%283%29.jpg,https://map.naver.com/p/entry/place/138401565
경북과학대학교박물관,반려동물업,반려동반여행,박물관,경상북도,칠곡군,기산면,봉산리,538 번지,지산로,483 번,35.99376817,128.338931,39913,경상북도 칠곡군 기산면 지산로 483,경상북도 칠곡군 기산면 봉산리 538,054-972-9796,kmuseum.kbsc.ac.kr,"매주 토, 일, 법정공휴일",월~금 09:00~18:00,Y,없음,N,해당없음,해당없음,해당없음,Y,N,박물관,없음,2022.11.30,,https://map.naver.com/p/entry/place/1888055142
경북대학교 자연사박물관,반려동물업,반려동반여행,박물관,경상북도,군위군,효령면,장군리,190-2 번지,경북대로,2228 번,36.12173194,128.576603,39033,경상북도 군위군 효령면 경상북도대로 2228,경상북도 군위군 효령면 장군리 190-2,054-383-7026,mnh.knu.ac.kr,"1월1일, 설, 추석 당일, 매주 월요일",화~일 10:00~17:30,Y,없음,N,해당없음,해당없음,해당없음,Y,N,박물관,없음,2022.11.30,https://ldb-phinf.pstatic.net/20211206_170/1638764525562vY3fu_JPEG/%B0%E6%BA%CF%B4%EB%C0%DA%BF%AC%BB%E7%B9%DA%B9%B0%B0%FC_001.jpg,https://map.naver.com/p/entry/place/13108545
경북대학교미술관,반려동물업,반려동반여행,미술관,대구광역시,북구,산격동,,1370-1 번지,대학로,80 번,35.88909749,128.614322,41566,대구광역시 북구 대학로 80,대구광역시 북구 산격동 1370-1,053-950-7968,http://artmuseum.knu.ac.kr/,"매주 일요일, 법정공휴일",월~토 10:00~18:00,Y,없음,N,해당없음,해당없음,해당없음,Y,Y,미술관,없음,2022.11.30,https://ldb-phinf.pstatic.net/20220226_253/16458489640391GUwC_JPEG/%C0%FC%B0%E6_%B0%A3%C6%C7%B1%B3%C3%BC.jpg,https://map.naver.com/p/entry/place/13342924
경산공원,반려동물업,반려동반여행,여행지,충청북도,청주시 흥덕구,가경동,,1512 번지,,,36.62480631,127.439642,28378,,충청북도 청주시 흥덕구 가경동 1512,043-201-4433,정보없음,연중무휴,매일 00:00~24:00,N,없음,Y,해당없음,모두 가능,"목줄, 배변봉투",N,Y,공원,없음,2022.11.30,,https://map.naver.com/p/entry/place/17781951
경산시립박물관,반려동물업,반려동반여행,박물관,경상북도,경산시,사동,,655-1 번지,박물관로,46 번,35.81398388,128.763123,38585,경상북도 경산시 박물관로 46,경상북도 경산시 사동 655-1,053-804-7314,http://museum.gbgs.go.kr,매주 월요일,화~일 09:00~18:00,Y,없음,N,해당없음,해당없음,해당없음,Y,Y,박물관,없음,2022.11.30,https://ldb-phinf.pstatic.net/20200108_42/1578464054521BXIbp_JPEG/Ol_5ho-09Q1fUIiz2XqoPdcr.jpeg.jpg,https://map.naver.com/p/entry/place/12127319
경산시민회관,반려동물업,반려동반여행,문예회관,경상북도,경산시,계양동,,683-2 번지,계양로,28 번,35.81826961,128.747839,38591,경상북도 경산시 계양로 28,경상북도 경산시 계양동 683-2,053-804-7245,https://www.gbgs.go.kr/special/civic/index.do,전시공연에 따라 변동,전시공연에 따라 변동,Y,변동,N,해당없음,해당없음,해당없음,Y,Y,문예회관,없음,2022.11.30,https://ldb-phinf.pstatic.net/20200718_130/1595049054323EaicH_JPEG/-Dfui1kpSOlBOR0GS9FiQrum.jpeg.jpg,https://map.naver.com/p/entry/place/11830910
경상남도문화예술회관,반려동물업,반려동반여행,문예회관,경상남도,진주시,칠암동,,500-15 번지,강남로,215 번,35.18727372,128.091744,52722,경상남도 진주시 강남로 215,경상남도 진주시 칠암동 500-15,055-254-4445,artcenter.gyeongnam.go.kr/,"매주 토, 일",월~금 9:00~18:00,Y,변동,N,해당없음,해당없음,해당없음,Y,Y,문예회관,없음,2022.11.30,https://ldb-phinf.pstatic.net/20191123_273/15744971058323Wpba_JPEG/t_foiesVMWEktIvxdGBQLVtG.jpg,https://map.naver.com/p/entry/place/13281077
경상남도산림박물관,반려동물업,반려동반여행,박물관,경상남도,진주시,이반성면,대천리,482-1 번지,수목원로,386 번,35.15719825,128.295736,52615,경상남도 진주시 이반성면 수목원로 386,경상남도 진주시 이반성면 대천리 482-1,055-254-3821,http://www.gyeongnam.go.kr/tree/index.gyeong,"1월1일, 설, 추석 당일, 매주 월요일","화~일 11~2월 09:00~17:00, 3~12월 09:00~18:00",Y,1500원,Y,해당없음,모두 가능,야외만 반려동물 동반 가능,Y,Y,박물관,없음,2022.11.30,https://ldb-phinf.pstatic.net/20230419_157/1681866617910qh4gR_JPEG/%B0%E6%BB%F3%B3%B2%B5%B5_%BB%EA%B8%B2%B9%DA%B9%B0%B0%FC_%C1%DF%BE%D3%B7%CE%BA%F1.JPG,https://map.naver.com/p/entry/place/21829340
경상대학교박물관,반려동물업,반려동반여행,박물관,경상남도,진주시,가좌동,,900 번지,진주대로,501 번,35.15671413,128.098001,52828,경상남도 진주시 진주대로 501,경상남도 진주시 가좌동 900,055-772-0601,https://www.gnu.ac.kr/museum/main.do,"10월20일, 법정공휴일, 매주 토, 일",월~금 10:00~17:00,Y,없음,N,해당없음,해당없음,해당없음,Y,N,박물관,없음,2022.11.30,http://image.nmv.naver.net/blog_2021_10_29_2508/60649fec-3857-11ec-9d5b-a0369ff94f34_01.jpg?type=r152#152x114#m,https://map.naver.com/p/entry/place/19846981
경상북도독립운동기념관,반려동물업,반려동반여행,박물관,경상북도,안동시,임하면,천전리,240 번지,독립기념관길,2 번,36.53319519,128.858222,36730,경상북도 안동시 임하면 독립기념관길 2,경상북도 안동시 임하면 천전리 240,054-820-2600,http://815gb.or.kr,매주 월요일,화~일 09:00~18:00,Y,없음,N,해당없음,해당없음,해당없음,Y,Y,박물관,없음,2022.11.30,https://ldb-phinf.pstatic.net/20150831_163/1441016395641p8gC9_JPEG/19801647_0.jpg,https://map.naver.com/p/entry/place/19801647
경상북도산림과학박물관,반려동물업,반려동반여행,박물관,경상북도,안동시,도산면,동부리,108-3 번지,퇴계로,2189 번,36.71396814,128.824678,36605,경상북도 안동시 도산면 퇴계로 2189,경상북도 안동시 도산면 동부리 108-3,054-855-8682,http://fsm.gb.go.kr,"1월1일, 설, 추석 당일",매일 09:00~17:00,Y,없음,N,해당없음,해당없음,해당없음,Y,Y,박물관,없음,2022.11.30,http://blogfiles.naver.net/MjAxNzA2MjdfMTc3/MDAxNDk4NTMyMjA5NjY3.be63u-PxBlYyI_k2t4LcSa8_CUVSSKOVAj2Z4IY5NKcg.ts6yuwyCnVWp3xiUVduD6pa0ndCwTTUzWpdTG9n_FNUg.JPEG.cucuya21/%B0%E6%BB%F3%BA%CF%B5%B5_%BB%EA%B8%B2%B0%FA%C7%D0%B9%DA%B9%B0%B0%FC-23.JPG#966x644,https://map.naver.com/p/entry/place/11784053
경성대학교 미술관,반려동물업,반려동반여행,미술관,부산광역시,남구,대연동,,37-1 번지,수영로,309 번,35.13843836,129.100099,48434,부산광역시 남구 수영로 309,부산광역시 남구 대연동 산 37-1,051-663-5361,https://cms1.ks.ac.kr/culture,"매주 토, 일, 법정공휴일",월~금 10:00~18:00,Y,없음,N,해당없음,해당없음,해당없음,Y,Y,미술관,없음,2022.11.30,,https://map.naver.com/p/entry/place/20364692
경성대학교박물관,반려동물업,반려동반여행,박물관,부산광역시,남구,대연동,,37-1 번지,수영로,309 번,35.13843836,129.100099,48434,부산광역시 남구 수영로 309,부산광역시 남구 대연동 산 37-1,051-663-4114,http://www.ks.ac.kr/ksmuseum,"매주 토, 일, 법정공휴일",월~금 09:00~18:00,Y,없음,N,해당없음,해당없음,해당없음,Y,N,박물관,없음,2022.11.30,http://blogfiles.naver.net/20160907_280/jaeminski_1473201270052PmRII_JPEG/20160618_144644.jpg#900x506,https://map.naver.com/p/entry/place/21829401
경암동철길마을,반려동물업,반려동반여행,여행지,전라북도,군산시,경암동,,539-4 번지,경촌4길,14 번,35.98130977,126.736212,54033,전라북도 군산시 경촌4길 14,전라북도 군산시 경암동 539-4,063-450-6598,https://www.gunsan.go.kr/tour/m2099/view/433883,연중무휴,매일 00:00~24:00,N,없음,Y,해당없음,모두 가능,목줄,N,Y,관광지,없음,2022.11.30,http://blogfiles.naver.net/MjAyNDAyMTFfMjY3/MDAxNzA3NjE2NjAxNTAy.S00cIkEgjgfAs-DI3CzfnWSd7iiTXmFPw53V7FVehzEg.U4-yjvO21OoCwPgu-ZfNbvtwrJ4Wac_c6PoWN10NxXEg.JPEG.gomom75/20240209_094736.jpg#3060x4080,https://map.naver.com/p/entry/place/31825959
경인아라뱃길,반려동물업,반려동반여행,여행지,인천광역시,서구,오류동,,1563 번지,정서진1로,41 번,37.55843603,126.607464,22850,인천광역시 서구 정서진1로 41,인천광역시 서구 오류동 1563,1599-3650,https://www.kwater.or.kr/giwaterway/ara.do,"매주 월요일, 법정공휴일","화~일 3~10월 10:00~19:00, 11~2월 09:00~18:00",Y,없음,Y,해당없음,모두 가능,"목줄, 배변봉투",N,Y,관광지,없음,2022.11.30,,https://map.naver.com/p/entry/place/20688449
경주 화랑의 언덕,반려동물업,반려동반여행,여행지,경상북도,경주시,산내면,내일리,164-2 번지,수의길,601 번,35.77204571,129.084329,38185,경상북도 경주시 산내면 수의길 601,경상북도 경주시 산내면 내일리 164-2,054-753-7001,https://www.instagram.com/gyeongju_okgreen/,연중무휴,매일 09:00~18:00,Y,2000원,Y,해당없음,모두 가능,"목줄, 케이지, 배변봉투",N,Y,관광지,"2,000원",2022.11.30,https://ldb-phinf.pstatic.net/20190805_250/1564981586207VwCvf_JPEG/8ZK66vIiUx-uQ35yi9to-Yev.jpg,https://map.naver.com/p/entry/place/1838298326
경주대학교박물관,반려동물업,반려동반여행,박물관,경상북도,경주시,효현동,,670 번지,태종로,188 번,35.82926585,129.163239,38065,경상북도 경주시 태종로 188,경상북도 경주시 효현동 670,054-770-5081,https://www.gu.ac.kr/07_introduction/05_uniOrga_03_04.html,"매주 토, 일, 법정공휴일",월~금 09:30~17:30,Y,없음,N,해당없음,해당없음,해당없음,Y,N,박물관,없음,2022.11.30,,https://map.naver.com/p/entry/place/19337893
경주세계자동차박물관,반려동물업,반려동반여행,박물관,경상북도,경주시,북군동,,66 번지,보문로,132-22 번,35.85210632,129.268549,38117,경상북도 경주시 보문로 132-22,경상북도 경주시 북군동 66,054-742-8900,http://carmuseum.co.kr,연중무휴,매일 10:00~18:30,Y,9900원,Y,해당없음,모두 가능,케이지 또는 안고 있으면 동반 가능,Y,Y,박물관,없음,2022.11.30,https://ldb-phinf.pstatic.net/20180117_248/1516157038441fbJOu_JPEG/aEELUKkZvZxYJnwznn1qd9Xu.JPG.jpg,https://map.naver.com/p/entry/place/38630852
경주솔거미술관,반려동물업,반려동반여행,미술관,경상북도,경주시,천군동,,130 번지,경감로,614 번,35.8322527,129.288867,38118,경상북도 경주시 경감로 614,경상북도 경주시 천군동 130,054-740-3990,http://www.gjsam.or.kr,연중무휴,매일 10:00~18:00,Y,12000원,Y,해당없음,모두 가능,"목줄, 배변봉투",Y,Y,"미술관, 경주엑스포대공원 부속시설",없음,2022.11.30,https://ldb-phinf.pstatic.net/20201219_144/16083589214036iR4f_JPEG/odJMtJeiXpCOGyTiUlMa_F4G.jpg,https://map.naver.com/p/entry/place/37396264
경주엑스포대공원,반려동물업,반려동반여행,여행지,경상북도,경주시,천군동,,130 번지,경감로,614 번,35.8322527,129.288867,38118,경상북도 경주시 경감로 614,경상북도 경주시 천군동 130,054-748-3011,http://www.cultureexpo.or.kr/,연중무휴,"매일 10~4월 10:00~18:00, 5, 9월 10:00~19:00, 6~8월 10:00~20:00",Y,12000원,Y,해당없음,소형/중형,"목줄, 배변봉투",N,Y,공원,없음,2022.11.30,https://naverbooking-phinf.pstatic.net/20200513_141/1589344347405mxWiz_JPEG/1589333191048.jpg,https://map.naver.com/p/entry/place/11622389
경주예술의전당,반려동물업,반려동반여행,문예회관,경상북도,경주시,황성동,,988 번지,알천북로,1 번,35.86235646,129.205996,38089,경상북도 경주시 알천북로 1,경상북도 경주시 황성동 988,1588-4925,http://www.gjartcenter.kr/,전시공연에 따라 변동,전시공연에 따라 변동,Y,변동,N,해당없음,해당없음,해당없음,Y,Y,문예회관,없음,2022.11.30,http://blogfiles.naver.net/MjAxNzA5MThfMjc5/MDAxNTA1NzI0MDc4ODYw.onfbEnSeOOkFJNbkTHhDKLPYlW4xukpMI9Egaft8rvwg.Spw10tO3VOiyWy61wpLb0m_QK5gv1jGbB2prUWGt3uMg.JPEG.pride_gb/1.jpg#900x675,https://map.naver.com/p/entry/place/13529857
경주장,반려동물업,반려동반여행,펜션,경상북도,경주시,황오동,,308-1 번지,태종로,801 번,35.84139023,129.215401,38159,경상북도 경주시 태종로 801,경상북도 경주시 황오동 308-1,050-5903-9202,http://경주장.com/,연중무휴,매일 16:00~10:00,Y,변동,N,해당없음,해당없음,해당없음,Y,Y,펜션,없음,2022.11.30,,https://map.naver.com/p/entry/place/15773228
경주허브랜드식물원,반려동물업,반려동반여행,여행지,경상북도,경주시,문무대왕면,장항리,589-1 번지,불국로,1593 번,35.78949833,129.386375,38120,경상북도 경주시 문무대왕면 불국로 1593,경상북도 경주시 문무대왕면 장항리 589-1,054-744-9080,정보없음,연중무휴,"월~금 10:00~18:00, 토~일 09:30~18:30",Y,없음,Y,해당없음,모두 가능,목줄,N,Y,관광지,없음,2022.11.30,https://ldb-phinf.pstatic.net/20200905_285/1599277818717oPYCe_JPEG/MPa-nMlpAaEmYvxqJo_8PGd5.jpeg.jpg,https://map.naver.com/p/entry/place/12312053
경천섬공원,반려동물업,반려동반여행,여행지,경상북도,상주시,중동면,오상리,968-1 번지,,,36.43188984,128.246993,37245,,경상북도 상주시 중동면 오상리 968-1,054-531-1996,정보없음,연중무휴,매일 00:00~24:00,Y,없음,Y,해당없음,모두 가능,"목줄, 배변봉투",N,Y,공원,없음,2022.11.30,http://blogfiles.naver.net/MjAyMzExMTlfNDkg/MDAxNzAwMzUzMDAwODU0.qZXyFsUAP1LdDevbe554FBmc_zoZQ3DpTuyRQEA5No0g.FpTLOCcGgZj-0EY7I6Rw1VGyCHkGLdUK03dsSLSJR5sg.JPEG.zzjworld/20231118%A3%DF152136.jpg#900x675,https://map.naver.com/p/entry/place/1165558222
경포코지펜션,반려동물업,반려동반여행,펜션,강원도,강릉시,초당동,,433-3 번지,난설헌로219번길,22 번,37.79432267,128.913484,25466,강원도 강릉시 난설헌로219번길 22,강원도 강릉시 초당동 433-3,0507-1497-7753,http://www.cozypension.co.kr,연중무휴,매일 15:00~11:00,Y,변동,Y,해당없음,10kg 이하,제한사항 없음,Y,Y,"애견 동반 펜션, 사전문의 필수","10,000원",2022.11.30,https://ldb-phinf.pstatic.net/20210608_233/1623113540356AXqEJ_JPEG/RSZ30emL3inD-gqWuZYQxcNz.jpg,https://map.naver.com/p/entry/place/1335624364
경훈미술관,반려동물업,반려동반여행,미술관,전라남도,목포시,산정동,,1087-12 번지,산정로,67 번,34.79459012,126.392772,58731,전라남도 목포시 산정로 67,전라남도 목포시 산정동 1087-12,061-277-6900,http://gyeonghoonmuseum. Creatorlink.net,매주 토~월,화~금 09:00~18:00,N,없음,N,해당없음,해당없음,해당없음,Y,N,미술관,없음,2022.11.30,https://ldb-phinf.pstatic.net/20170717_262/1500229999928onjTQ_JPEG/186667436338480_0.jpeg,https://map.naver.com/p/entry/place/37796015
경희대학교 자연사박물관,반려동물업,반려동반여행,박물관,서울특별시,동대문구,회기동,,1-5 번지,경희대로,26 번,37.59394914,127.054891,2447,서울특별시 동대문구 경희대로 26,서울특별시 동대문구 회기동 1-5,02-961-0142,https://nhm.khu.ac.kr/,"매주 토, 일","월~화,목~금 10:00~15:00, 수 10:00~20:00",Y,없음,N,해당없음,해당없음,해당없음,Y,N,박물관,없음,2022.11.30,http://blogfiles.naver.net/20140929_74/gajabali_14119682317914wE5C_JPEG/0830-193.jpg#740x566,https://map.naver.com/p/entry/place/11620574
경희대학교 중앙박물관,반려동물업,반려동반여행,박물관,서울특별시,동대문구,회기동,,1-5 번지,경희대로,26 번,37.59394914,127.054891,2447,서울특별시 동대문구 경희대로 26,서울특별시 동대문구 회기동 1-5,02-961-0141,http://museum.khu.ac.kr,"법정 법정공휴일, 매주 토, 일",월~금 10:00~17:00,Y,없음,N,해당없음,해당없음,해당없음,Y,N,박물관,없음,2022.11.30,,https://map.naver.com/p/entry/place/1988246415
경희대학교 한의학역사박물관,반려동물업,반려동반여행,박물관,서울특별시,동대문구,회기동,,1-5 번지,경희대로,26 번,37.59394914,127.054891,2447,서울특별시 동대문구 경희대로 26,서울특별시 동대문구 회기동 1-5,02-961-2274,정보없음,"매주 토, 일",월~금 10:00~16:00,Y,없음,N,해당없음,해당없음,해당없음,Y,N,박물관,없음,2022.11.30,,https://map.naver.com/p/entry/place/34919380
경희대학교 혜정박물관,반려동물업,반려동반여행,박물관,경기도,용인시 기흥구,서천동,,1 번지,덕영대로,1732 번,37.23980015,127.081199,17104,경기도 용인시 기흥구 덕영대로 1732,경기도 용인시 기흥구 서천동 1,031-201-2011,oldmaps.khu.ac.kr,"매주 토, 일",월~금 10:00~16:00,Y,없음,N,해당없음,해당없음,해당없음,Y,N,박물관,없음,2022.11.30,http://blogfiles.naver.net/MjAxNzA4MDVfMjE1/MDAxNTAxOTQxMzQzNTI5.CwAz-C4xscpGPcZyt9lpWjBycdT-WLiuo3DajEXmp_cg.cQNF3lWv-gXJN4aSZDuhRncTSskSM5LszwJgz4Vvy6kg.JPEG.jhmi0325/2017-08-05_22%3B53%3B56.jpg#698x357,https://map.naver.com/p/entry/place/12376730
계룡문화예술의전당,반려동물업,반려동반여행,문예회관,충청남도,계룡시,엄사면,유동리,295-1 번지,문화1로,13 번,36.27292409,127.234148,32829,충청남도 계룡시 엄사면 문화1로 13,충청남도 계룡시 엄사면 유동리 295-1,042-840-3707,http://www.gyeryong.go.kr/ac/,"매주 토, 일, 법정공휴일",월~금 09:00~18:00,Y,변동,N,해당없음,해당없음,해당없음,Y,N,문예회관,없음,2022.11.30,https://ldb-phinf.pstatic.net/20180403_76/1522738994043OU1Fs_PNG/3lf0syoWxiNmd2Mf6hTQQXXv.png,https://map.naver.com/p/entry/place/17620716
계룡시입암리유적공원,반려동물업,반려동반여행,여행지,충청남도,계룡시,두마면,입암리,83 번지,,,36.24939953,127.270556,32842,,충청남도 계룡시 두마면 입암리 83,,정보없음,연중무휴,매일 00:00~24:00,N,없음,Y,해당없음,모두 가능,목줄,N,Y,공원,없음,2022.11.30,,https://map.naver.com/p/entry/place/17619032
계룡시종합문화체육공원,반려동물업,반려동반여행,여행지,충청남도,계룡시,엄사면,유동리,264 번지,,,36.26975368,127.233049,32830,,충청남도 계룡시 엄사면 유동리 264,,정보없음,연중무휴,매일 00:00~24:00,Y,없음,Y,해당없음,모두 가능,목줄,N,Y,공원,없음,2022.11.30,,https://map.naver.com/p/entry/place/17620671
계명대학교 행소박물관,반려동물업,반려동반여행,박물관,대구광역시,달서구,신당동,,1000-2 번지,달구벌대로,1095 번,35.85355435,128.481494,42601,대구광역시 달서구 달구벌대로 1095,대구광역시 달서구 신당동 1000-2,053-580-6992,www.hengsomuseum.com,"1월1일, 매주 일, 월",화~토 10:00~17:00,Y,없음,Y,해당없음,모두 가능,야외만 반려동물 동반 가능,Y,Y,박물관,없음,2022.11.30,http://blogfiles.naver.net/20120416_149/dkswodn77_1334586798457Lcd6x_JPEG/DSC00718.JPG#900x598,https://map.naver.com/p/entry/place/12174294
계양문화회관,반려동물업,반려동반여행,문예회관,인천광역시,계양구,계산동,,724 번지,계양산로35번길,11 번,37.54607888,126.718131,21042,인천광역시 계양구 계양산로35번길 11,인천광역시 계양구 계산동 724,032-551-6602,www.gysiseol.or.kr,전시공연에 따라 변동,매일 09:00~22:00,Y,변동,N,해당없음,해당없음,해당없음,Y,N,문예회관,없음,2022.11.30,https://ldb-phinf.pstatic.net/20150831_15/1441010827378X0qIk_JPEG/11639728_0.jpg,https://map.naver.com/p/entry/place/11639728
계양산산림욕장,반려동물업,반려동반여행,여행지,인천광역시,계양구,계산동,,48 번지,경명대로955번길,17 번,37.54651868,126.712241,21042,인천광역시 계양구 경명대로955번길 17,인천광역시 계양구 계산동 산 48,032-450-5655,정보없음,연중무휴,매일 00:00~24:00,Y,없음,Y,해당없음,모두 가능,목줄,N,Y,관광지,없음,2022.11.30,http://blogfiles.naver.net/MjAxNzEwMTFfMTMz/MDAxNTA3Njk5NjU1OTI3._u_O0k1-JJY3ZUyBrMBqdB_0vL6OsrkLNrCt4smiNh0g.49wsc7xz2DTovHH5A3DRFiq6HBO6SOSsdt2ZLWuMqxIg.JPEG.discoverincheon/%BB%E7%C1%F84.jpg#4128x3096,https://map.naver.com/p/entry/place/16929926
계양산성박물관,반려동물업,반려동반여행,박물관,인천광역시,계양구,계산동,,548-14 번지,계양산로,101 번,37.54801927,126.727032,21041,인천광역시 계양구 계양산로 101,인천광역시 계양구 계산동 548-14,032-450-8317,http://museum.gyeyang.go.kr,"1월1일, 설, 추석 당일, 매주 월요일",화~일 09:00~18:00,Y,1000원,Y,해당없음,모두 가능,야외만 반려동물 동반 가능,Y,Y,박물관,없음,2022.11.30,,https://map.naver.com/p/entry/place/1464948902
고구려대장간마을,반려동물업,반려동반여행,박물관,경기도,구리시,아천동,,316-47 번지,우미내길,41 번,37.56080787,127.110949,11958,경기도 구리시 우미내길 41,경기도 구리시 아천동 316-47,031-550-2363,http://www.guri.go.kr/main/gbv,연중무휴,"월~금 09:00~18:00, 토~일 09:00~19:00",Y,없음,Y,해당없음,모두 가능,야외만 반려동물 동반 가능,Y,Y,박물관,없음,2022.11.30,https://ldb-phinf.pstatic.net/20150901_226/1441053764543OXyTi_JPEG/106078583949614_0.jpg,https://map.naver.com/p/entry/place/13043905
고남패총박물관,반려동물업,반려동반여행,박물관,충청남도,태안군,고남면,고남리,611 번지,안면대로,4270-6 번,36.42033319,126.410021,32172,충청남도 태안군 고남면 안면대로 4270-6,충청남도 태안군 고남면 고남리 611,041-670-2337,https://taean.go.kr/tour/sub04_07_01_01.do,"1월1일, 설, 추석 연휴, 매주 월요일","화~일 3~11월 09:00~18:00, 12~2월 09:00~17:00",Y,1200원,N,해당없음,해당없음,해당없음,Y,Y,박물관,없음,2022.11.30,https://ldb-phinf.pstatic.net/20150901_118/1441039067342GKyA4_JPEG/11785211_0.jpg,https://map.naver.com/p/entry/place/11785211
고래들근린공원,반려동물업,반려동반여행,여행지,대전광역시,유성구,지족동,,1064 번지,,,36.3865439,127.30993,34085,,대전광역시 유성구 지족동 1064,,정보없음,연중무휴,매일 00:00~24:00,Y,없음,Y,해당없음,모두 가능,목줄,N,Y,공원,없음,2022.11.30,,https://map.naver.com/p/entry/place/1108554218
고려대학교박물관,반려동물업,반려동반여행,박물관,서울특별시,성북구,안암동,,1-2 번지,안암로,145 번,37.58870342,127.031698,2841,서울특별시 성북구 안암로 145,서울특별시 성북구 안암동5가 1-2,02-3290-1514,museum.korea.ac.kr,"매주 일요일, 법정공휴일",월~토 10:00~17:00,Y,없음,N,해당없음,해당없음,해당없음,Y,N,박물관,없음,2022.11.30,,https://map.naver.com/p/entry/place/1092658380
고려청자박물관,반려동물업,반려동반여행,박물관,전라남도,강진군,대구면,사당리,127 번지,청자촌길,33 번,34.50866203,126.800837,59263,전라남도 강진군 대구면 청자촌길 33,전라남도 강진군 대구면 사당리 127,061-430-3755,www.celadon.go.kr,매주 월요일,화~일 09:00~18:00,Y,2000원,N,해당없음,해당없음,해당없음,Y,Y,박물관,없음,2022.11.30,http://blogfiles.naver.net/MjAxODExMjRfMjU4/MDAxNTQzMDU5NTA0MDIz.T3ScotL4JHwhuhSn0CQctcCdLRmXLWmN0eeT_sS29AEg.M2Cvzzj34MI40g3eeHtxwMYcljC90g701eobuJhtlOwg.JPEG.missionhkc/IMG_0144.JPG#5184x3456,https://map.naver.com/p/entry/place/1733583533
고마제,반려동물업,반려동반여행,여행지,전라북도,부안군,동진면,내기리,292-10 번지,고마제로,115 번,35.73823486,126.761115,56303,전라북도 부안군 동진면 고마제로 115,전라북도 부안군 동진면 내기리 292-10,,정보없음,연중무휴,매일 00:00~24:00,N,없음,Y,해당없음,모두 가능,목줄,N,Y,관광지,없음,2022.11.30,,https://map.naver.com/p/entry/place/16753132
고모저수지,반려동물업,반려동반여행,여행지,경기도,포천시,소흘읍,고모리,669-5 번지,죽엽산로,454 번,37.79407652,127.165042,11185,경기도 포천시 소흘읍 죽엽산로 454,경기도 포천시 소흘읍 고모리 669-5,031-538-4102,정보없음,연중무휴,매일 00:00~24:00,Y,없음,Y,해당없음,모두 가능,"목줄, 배변봉투",N,Y,관광지,없음,2022.11.30,,https://map.naver.com/p/entry/place/37783311
고산윤선도유물전시관,반려동물업,반려동반여행,박물관,전라남도,해남군,해남읍,연동리,102-1 번지,녹우당길,130 번,34.54972099,126.620835,59046,전라남도 해남군 해남읍 녹우당길 130,전라남도 해남군 해남읍 연동리 102-1,061-530-5548,www.gosan.haenam.go.kr,매주 월요일,화~일 09:00~18:00,Y,2000원,N,해당없음,해당없음,해당없음,Y,Y,박물관,없음,2022.11.30,,https://map.naver.com/p/entry/place/1826568794
고석정,반려동물업,반려동반여행,여행지,강원도,철원군,동송읍,장흥리,20-1 번지,태봉로,1825 번,38.18542141,127.287404,24023,강원도 철원군 동송읍 태봉로 1825,강원도 철원군 동송읍 장흥리 20-1,033-450-5559,https://www.cwg.go.kr/tour/,매주 화요일,수~월 10:00~17:00,Y,없음,Y,해당없음,모두 가능,목줄,N,Y,관광지,없음,2022.11.30,https://ldb-phinf.pstatic.net/20190921_276/1569075984636cH5aW_JPEG/f5CcR7QcJSBxyCMhumQ9saAD.jpg,https://map.naver.com/p/entry/place/19493923
고석정꽃밭,반려동물업,반려동반여행,여행지,강원도,철원군,동송읍,장흥리,10-2 번지,태봉로,1769 번,38.1882275,127.295506,24023,강원도 철원군 동송읍 태봉로 1769,강원도 철원군 동송읍 장흥리 10-2,033-455-7072,https://www.cwg.go.kr/tour/contents.do?key=1629,매주 화요일,수~월 09:00~21:00,Y,6000원,Y,해당없음,모두 가능,"목줄, 배변봉투",N,Y,관광지,없음,2022.11.30,https://ldb-phinf.pstatic.net/20240913_202/1726229090804ENmbs_PNG/%B8%AE%C7%C3%B7%BF%28%C3%D6%C1%BE%29.png,https://map.naver.com/p/entry/place/1037915743
고성공룡박물관,반려동물업,반려동반여행,박물관,경상남도,고성군,하이면,덕명리,85-2 번지,자란만로,618 번,34.90809856,128.14865,52963,경상남도 고성군 하이면 자란만로 618,경상남도 고성군 하이면 덕명리 85-2,055-670-4451,museum.goseong.go.kr,"1월1일, 설, 추석 당일, 매주 토~월",화~금 09:00~18:00,Y,3000원,Y,해당없음,모두 가능,야외만 반려동물 동반 가능,Y,Y,박물관,없음,2022.11.30,https://ldb-phinf.pstatic.net/20210716_142/1626435629218zHlHo_JPEG/kKgS6hMb-ssoKe-7IeQIzNyG.jpg,https://map.naver.com/p/entry/place/1026854601
고성군문화복지센터,반려동물업,반려동반여행,문예회관,강원도,고성군,거진읍,송포리,634 번지,자산천로,240 번,38.43611285,128.452518,24722,강원도 고성군 거진읍 자산천로 240,강원도 고성군 거진읍 송포리 634,033-680-3366,정보없음,"매주 토, 일",월~금 09:00~18:00,Y,변동,N,해당없음,해당없음,해당없음,Y,N,문예회관,없음,2022.11.30,https://ldb-phinf.pstatic.net/20190915_14/1568523273321HWp2k_JPEG/TqFYj2syFvj6ZPZDfAUnjafY.jpg,https://map.naver.com/p/entry/place/35751461
고성군문화체육센터,반려동물업,반려동반여행,문예회관,경상남도,고성군,고성읍,기월리,611 번지,송학고분로,193 번,34.97931322,128.310723,52931,경상남도 고성군 고성읍 송학고분로 193,경상남도 고성군 고성읍 기월리 611,055-670-5846,정보없음,연중무휴,"월~금 06:00~20:00, 토~일 06:00~18:00",Y,변동,N,해당없음,해당없음,해당없음,Y,N,체육시설,없음,2022.11.30,https://ldb-phinf.pstatic.net/20190915_88/1568523323642OMCkO_JPEG/gZL4gpP8O_b7s9LoSYWnQlXs.jpg,https://map.naver.com/p/entry/place/15065081
고성박물관,반려동물업,반려동반여행,박물관,경상남도,고성군,고성읍,송학리,475-1 번지,송학로113번길,50 번,34.97937268,128.321012,52937,경상남도 고성군 고성읍 송학로113번길 50,경상남도 고성군 고성읍 송학리 475-1,055-670-5822,https://www.goseong.go.kr/gsmuseum/index.goseong,"1월1일, 설, 추석 당일, 매주 월요일","화~일 11~2월 09:00~17:00, 3~12월 09:00~18:00",Y,없음,Y,해당없음,모두 가능,야외만 반려동물 동반 가능,Y,Y,박물관,없음,2022.11.30,,https://map.naver.com/p/entry/place/1511617224
고성자연사박물관,반려동물업,반려동반여행,박물관,경상남도,고성군,회화면,삼덕리,1116 번지,남해안대로,3795-70 번,35.07070703,128.372725,52913,경상남도 고성군 회화면 남해안대로 3795-70,경상남도 고성군 회화면 삼덕리 1116,055-670-4505,http://dhp.goseong.go.kr/index.goseong,"1월1일, 설, 추석 당일, 매주 월요일","화~일 11~2월 09:00~17:00, 3~12월 09:00~18:00",Y,7000원,Y,해당없음,모두 가능,야외만 반려동물 동반 가능,Y,Y,박물관,없음,2022.11.30,,https://map.naver.com/p/entry/place/1816463241
고성탈박물관,반려동물업,반려동반여행,박물관,경상남도,고성군,고성읍,율대리,666-19 번지,율대2길,23 번,34.97104862,128.333805,52947,경상남도 고성군 고성읍 율대2길 23,경상남도 고성군 고성읍 율대리 666-19,055-672-8829,http://mask.goseong.go.kr,"1월1일, 설, 추석 당일, 매주 월요일","화~일 3~10월 09:00~18:00, 11~2월 09:00~17:00",Y,없음,Y,해당없음,모두 가능,야외만 반려동물 동반 가능,Y,Y,박물관,없음,2022.11.30,https://ldb-phinf.pstatic.net/20150831_69/1441016015096uWEtP_JPEG/116070517974463_0.jpg,https://map.naver.com/p/entry/place/12397304
고소동 벽화마을,반려동물업,반려동반여행,여행지,전라남도,여수시,고소동,,268 번지,,,34.73900024,127.741163,59738,,전라남도 여수시 고소동 268,061-659-3877,http://tour.yeosu.go.kr,연중무휴,매일 00:00~24:00,Y,없음,Y,해당없음,모두 가능,"목줄, 배변봉투",N,Y,관광지,없음,2022.11.30,http://blogfiles.naver.net/MjAxODAzMDhfNDAg/MDAxNTIwNDc2NjMwNTAw.hH7L1yc_6u4XyTe6bR039XyG4eu_j5k8MfX3UcH3QLMg.aELgkgUWVR3cQq7MU6Hxqkdb4-_ASzUSnF5HJjlmHFwg.JPEG.shoona85/DSCN3741_%282%29.jpg#4000x3000,https://map.naver.com/p/entry/place/809035097
고양가와지볍씨박물관,반려동물업,반려동반여행,박물관,경기도,고양시 덕양구,원흥동,,471-10 번지,고양대로,1695 번,37.6497779,126.870086,10563,경기도 고양시 덕양구 고양대로 1695,경기도 고양시 덕양구 원흥동 471-10,031-968-3399,http://www.goyang.go.kr/agr/agr02/agr02_8.jsp,"매주 일요일, 법정공휴일","월~금 09:30~17:30, 토 09:30~17:30",Y,없음,Y,해당없음,모두 가능,야외만 반려동물 동반 가능,Y,Y,박물관,없음,2022.11.30,http://blogfiles.naver.net/MjAxNzEyMTJfMTUx/MDAxNTEzMDgwMjI2NDg0.CZBlnx13dICrzjrDWn7ZUSsqB7iIEyNSxfj6Yxv9CUsg.TiW9uCA7DT6kiF2pDhd-_gqRsRqD1wzgSSJt27s-PpUg.JPEG.dayee0/1.JPG#900x600,https://map.naver.com/p/entry/place/34585567
고양로봇박물관,반려동물업,반려동반여행,박물관,경기도,고양시 덕양구,관산동,,290 번지,원당로458번길,7-42 번,37.69013206,126.855305,10288,경기도 고양시 덕양구 원당로458번길 7-42,경기도 고양시 덕양구 관산동 290,031-962-4500,www.themezoozoo.or.kr,매주 월요일,"화~금 10:00~18:00, 토~일 10:00~19:00",Y,없음,N,해당없음,해당없음,해당없음,Y,N,박물관,없음,2022.11.30,https://naverbooking-phinf.pstatic.net/20221201_243/1669864326983qYoYe_JPEG/01._%B7%CE%BA%BF%B9%DA%B9%B0%B0%FC%2C_%B0%F8%BF%AC%C0%E5_%C0%FC%B0%E6.jpg,https://map.naver.com/p/entry/place/1507652157
고양시문예회관,반려동물업,반려동반여행,문예회관,경기도,고양시 덕양구,주교동,,600 번지,고양시청로,10 번,37.65841333,126.83196,10460,경기도 고양시 덕양구 고양시청로 10,경기도 고양시 덕양구 주교동 600,031-969-7939,www.artgy.or.kr,"매주 토, 일, 법정공휴일",월~금 09:00~21:00,Y,변동,N,해당없음,해당없음,해당없음,Y,N,문예회관,없음,2022.11.30,https://ldb-phinf.pstatic.net/20150901_32/1441039734281YXUd0_JPEG/11797377_0.jpg,https://map.naver.com/p/entry/place/11797377
고양아람누리,반려동물업,반려동반여행,문예회관,경기도,고양시 일산동구,마두동,,816 번지,중앙로,1286 번,37.6614856,126.774458,10409,경기도 고양시 일산동구 중앙로 1286,경기도 고양시 일산동구 마두동 816,1577-7766,www.artgy.or.kr,전시공연에 따라 변동,전시공연에 따라 변동,Y,변동,N,해당없음,해당없음,해당없음,Y,N,문예회관,없음,2022.11.30,https://ldb-phinf.pstatic.net/20150831_227/1440990898636P4F64_JPEG/11875532_0.jpg,https://map.naver.com/p/entry/place/11875532
고양어린이박물관,반려동물업,반려동반여행,박물관,경기도,고양시 덕양구,화정동,,1003 번지,화중로,26 번,37.62948078,126.830949,10503,경기도 고양시 덕양구 화중로 26,경기도 고양시 덕양구 화정동 1003,031-839-0300,www.goyangcm.or.kr,"1월1일, 설, 추석 당일, 매주 월요일",화~일 09:00~17:00,Y,5000원,Y,해당없음,모두 가능,야외만 반려동물 동반 가능,Y,Y,박물관,없음,2022.11.30,https://ldb-phinf.pstatic.net/20240516_153/1715838687634ManUz_JPEG/24_0516_%B3%D7%C0%CC%B9%F6%C7%C3%B7%B9%C0%CC%BD%BA%BB%E7%C1%F8.jpg,https://map.naver.com/p/entry/place/33997463
고양어울림누리,반려동물업,반려동반여행,문예회관,경기도,고양시 덕양구,성사동,,826 번지,어울림로,33 번,37.64905648,126.835368,10471,경기도 고양시 덕양구 어울림로 33,경기도 고양시 덕양구 성사동 826,1577-7766,www.artgy.or.kr,전시공연에 따라 변동,전시공연에 따라 변동,Y,변동,N,해당없음,해당없음,해당없음,Y,N,문예회관,없음,2022.11.30,https://ldb-phinf.pstatic.net/20150901_173/14410397389244Ppg8_JPEG/11797402_0.jpg,https://map.naver.com/p/entry/place/11797402
고양이놀이터 카페,반려동물업,반려동물식당카페,카페,서울특별시,중구,명동,,66-4 번지,명동8길,37-14 번,37.56197788,126.985489,4536,서울특별시 중구 명동8길 37-14,서울특별시 중구 충무로2가 66-4,02-3789-2207,http://instagram.com/catplayground_,연중무휴,매일 12:00~23:00,N,12000원,Y,해당없음,모두 가능,제한사항 없음,Y,N,"애견카페, 상주묘 있음",없음,2022.11.30,https://ldb-phinf.pstatic.net/20240920_200/17268404214375ONOb_JPEG/IMG_3140.jpeg,https://map.naver.com/p/entry/place/21617309
고양이다락방 홍대점,반려동물업,반려동물식당카페,카페,서울특별시,마포구,동교동,,162-14 번지,홍익로6길,21 번,37.55549336,126.922902,4050,서울특별시 마포구 홍익로6길 21,서울특별시 마포구 동교동 162-14,02-3142-3123,http://www.godabang.com/,연중무휴,매일 13:00~22:00,Y,10000원,Y,해당없음,모두 가능,제한사항 없음,Y,N,"고양이 카페, 미취학 아동 입장 불가",없음,2022.11.30,https://ldb-phinf.pstatic.net/20220413_90/1649857280084x4S3t_JPEG/D5A97EF7-D679-4DDE-A305-85E3BB9C6050.jpeg,https://map.naver.com/p/entry/place/20091272
고양이를부탁해,반려동물업,반려동물식당카페,카페,경상남도,창원시 마산회원구,합성동,,124-9 번지,합성옛길,78 번,35.23543765,128.582341,51361,경상남도 창원시 마산회원구 합성옛길 78,경상남도 창원시 마산회원구 합성동 124-9,055-603-0171,http://www.instagram.com/catscats13,매주 월요일,화~일 12:00~21:00,N,6000원,N,해당없음,해당없음,해당없음,Y,N,"상주묘 있음, 고양이 용품, 노키즈존",없음,2022.11.30,,https://map.naver.com/p/entry/place/19594016
고양이모자 카페,반려동물업,반려동물식당카페,카페,경상남도,진주시,가좌동,,1432-2 번지,가좌길84번길,14 번,35.16025752,128.106776,52822,경상남도 진주시 가좌길84번길 14,경상남도 진주시 가좌동 1432-2,055-921-8523,http://blog.naver.com/cathatj.do,매주 월요일,화~일 13:00~21:30,N,변동,Y,해당없음,모두 가능,제한사항 없음,Y,N,애견카페,없음,2022.11.30,https://ldb-phinf.pstatic.net/20150901_293/1441058614108ugYXP_JPEG/146963605950519_0.jpeg,https://map.naver.com/p/entry/place/33418110
고양이정원,반려동물업,반려동물식당카페,카페,서울특별시,강서구,개화동,,559-49 번지,개화동로19길,18 번,37.57570577,126.803165,7504,서울특별시 강서구 개화동로19길 18,서울특별시 강서구 개화동 559-49,02-2665-4507,http://www.catlover-garden.com/,연중무휴,매일 11:00~22:00,Y,20000원,Y,해당없음,모두 가능,제한사항 없음,Y,Y,"애견카페, 상주묘 있음",없음,2022.11.30,https://ldb-phinf.pstatic.net/20190504_148/1556903580292DIvuV_JPEG/80QNHhoFu2ihkVYI1W-Ew4gz.jpg,https://map.naver.com/p/entry/place/38711752
고양이카페,반려동물업,반려동물식당카페,카페,충청남도,천안시 동남구,신부동,,386-58 번지,먹거리8길,30 번,36.81713554,127.156292,31123,충청남도 천안시 동남구 먹거리8길 30,충청남도 천안시 동남구 신부동 386-58,0507-1315-7019,https://blog.naver.com/bababo080601,매주 목요일,금~수 14:00~21:00,N,9000원,Y,해당없음,모두 가능,제한사항 없음,Y,N,"애견카페, 12세 미만 입장 불가",없음,2022.11.30,https://ldb-phinf.pstatic.net/20240704_135/1720074074749kpT8o_JPEG/IMG_1722.jpeg,https://map.naver.com/p/entry/place/1666172192
고양이카페38.5,반려동물업,반려동물식당카페,카페,경기도,남양주시,별내동,,826-7 번지,별내3로,324 번,37.66633739,127.117557,12097,경기도 남양주시 별내3로 324,경기도 남양주시 별내동 826-7,031-529-6364,http://blog.naver.com/leeso605,매주 월요일,화~일 13:00~21:00,Y,10000원,Y,해당없음,모두 가능,제한사항 없음,Y,N,"고양이 카페, 미취학 아동 입장 불가",없음,2022.11.30,https://ldb-phinf.pstatic.net/20170213_57/1486982924497jkCSa_JPEG/186163597864295_0.jpeg,https://map.naver.com/p/entry/place/35075877
고양이팔경캣스쿨,반려동물업,반려동물식당카페,카페,경기도,남양주시,화도읍,창현리,436-2 번지,창현로,9-3 번,37.64899428,127.306752,12183,경기도 남양주시 화도읍 창현로 9-3,경기도 남양주시 화도읍 창현리 436-2,031-511-1717,https://blog.naver.com/rlaworua6265,연중무휴,매일 12:00~24:00,Y,변동,Y,해당없음,모두 가능,제한사항 없음,Y,N,애견카페,없음,2022.11.30,https://ldb-phinf.pstatic.net/20200323_3/1584966100368vUsiq_JPEG/hRCifVBTGiUcjoSksAwwVd-D.jpg,https://map.naver.com/p/entry/place/1759572830
고운정,반려동물업,반려동반여행,펜션,광주광역시,광산구,고룡동,,84 번지,임곡연동길,131-13 번,35.20511584,126.777242,62207,광주광역시 광산구 임곡연동길 131-13,광주광역시 광산구 고룡동 84,0507-1333-0846,정보없음,연중무휴,매일 16:00~11:00,Y,변동,Y,해당없음,모두 가능,제한사항 없음,Y,Y,관광지,"20,000원",2022.11.30,https://ldb-phinf.pstatic.net/20220928_93/1664346511172yuLRE_JPEG/20220509_195415.jpg,https://map.naver.com/p/entry/place/1430068609
고은사진미술관,반려동물업,반려동반여행,미술관,부산광역시,해운대구,우동,,1005-17 번지,해운대로452번길,16 번,35.16328812,129.141211,48089,부산광역시 해운대구 해운대로452번길 16,부산광역시 해운대구 우동 1005-17,051-746-0055,http://www.goeunmuseum.kr,"1월1일, 설, 추석 당일, 매주 월요일",화~일 10:00~19:00,Y,없음,N,해당없음,해당없음,해당없음,Y,N,미술관,없음,2022.11.30,https://ldb-phinf.pstatic.net/20190102_113/1546414606984BUSBh_JPEG/_rvTO471X07cwcHg5biE-LeT.JPG.jpg,https://map.naver.com/p/entry/place/21638531
고인돌공원,반려동물업,반려동반여행,여행지,전라북도,고창군,고창읍,도산리,676 번지,고인돌공원길,74 번,35.44169795,126.652498,56443,전라북도 고창군 고창읍 고인돌공원길 74,전라북도 고창군 고창읍 도산리 676,063-560-8666,정보없음,연중무휴,매일 00:00~24:00,Y,없음,Y,해당없음,모두 가능,목줄,N,Y,공원,없음,2022.11.30,https://ldb-phinf.pstatic.net/20150901_245/1441042985517QquQ3_JPEG/12956067_0.jpg,https://map.naver.com/p/entry/place/12956067
고창 청농원,반려동물업,반려동반여행,여행지,전라북도,고창군,공음면,용수리,681 번지,청천길,41-27 번,35.37359974,126.535064,56461,전라북도 고창군 공음면 청천길 41-27,전라북도 고창군 공음면 용수리 681,063-561-6907,http://gobluefarm.com/,연중무휴,매일 09:00~17:30,Y,변동,Y,해당없음,모두 가능,"목줄, 배변봉투",N,Y,"관광지, 라벤더, 핑크뮬리 5,000원(시즌 외 무료입장)",없음,2022.11.30,https://ldb-phinf.pstatic.net/20240920_218/1726786633890x7qW1_PNG/%C1%A6%B8%F1%C0%BB_%C0%D4%B7%C2%C7%D8%C1%D6%BC%BC%BF%E4_-003.png,https://map.naver.com/p/entry/place/1181907711
고창고인돌박물관,반려동물업,반려동반여행,박물관,전라북도,고창군,고창읍,도산리,676 번지,고인돌공원길,74 번,35.44169795,126.652498,56443,전라북도 고창군 고창읍 고인돌공원길 74,전라북도 고창군 고창읍 도산리 676,063-560-8666,www.gochang.go.kr/gcdolmen,"1월1일, 매주 월요일","화~일 3~10월 09:00~18:00, 11~2월 09:00~17:00",Y,3000원,N,해당없음,해당없음,해당없음,Y,Y,박물관,없음,2022.11.30,https://ldb-phinf.pstatic.net/20150901_245/1441042985517QquQ3_JPEG/12956067_0.jpg,https://map.naver.com/p/entry/place/12956067
고창문화의전당,반려동물업,반려동반여행,문예회관,전라북도,고창군,고창읍,읍내리,188 번지,모양성로,11 번,35.43338075,126.704576,56441,전라북도 고창군 고창읍 모양성로 11,전라북도 고창군 고창읍 읍내리 188,063-560-8041,http://www.gochang.go.kr/art,"매주 토, 일",월~금 08:00~22:00,Y,변동,N,해당없음,해당없음,해당없음,Y,N,문예회관,없음,2022.11.30,https://ldb-phinf.pstatic.net/20150901_9/1441049410053DGXia_JPEG/97151564121605_0.jpg,https://map.naver.com/p/entry/place/13008345
고창판소리박물관,반려동물업,반려동반여행,박물관,전라북도,고창군,고창읍,읍내리,241-1 번지,동리로,100 번,35.43235222,126.702505,56440,전라북도 고창군 고창읍 동리로 100,전라북도 고창군 고창읍 읍내리 241-1,063-560-8061,pansorimuseum.gochang.go.kr,"1월1일, 매주 월요일","화~일 하절기 09:00~18:00, 동절기 09:00~17:00",Y,800원,N,해당없음,해당없음,해당없음,Y,Y,박물관,없음,2022.11.30,https://ldb-phinf.pstatic.net/20150831_58/1441006791868uk6Jl_JPEG/11620639_0.jpg,https://map.naver.com/p/entry/place/11620639
고촌이종근기념관,반려동물업,반려동반여행,박물관,서울특별시,서대문구,충현동,,368 번지,충정로,8 번,37.55967811,126.963202,3742,서울특별시 서대문구 충정로 8,서울특별시 서대문구 충정로3가 368,02-365-6940,www.kochonhall.or.kr,법정공휴일,매일 10:00~17:00,Y,없음,N,해당없음,해당없음,해당없음,Y,N,박물관,없음,2022.11.30,https://ldb-phinf.pstatic.net/20150831_138/1440989696294yT5fY_JPEG/156652547233908_4.jpeg,https://map.naver.com/p/entry/place/35251915
고현성,반려동물업,반려동반여행,여행지,경상남도,거제시,고현동,,,,,34.88255464,128.623265,53247,,경상남도 거제시 고현동,055-639-3000,정보없음,연중무휴,매일 00:00~24:00,Y,없음,Y,해당없음,모두 가능,"목줄, 배변봉투",N,Y,관광지,없음,2022.11.30,http://blogfiles.naver.net/MjAyMTA1MjlfMzIg/MDAxNjIyMjc4MzIxODcy.XfXThX9RaykFMaEGAA1pDa1bIqNwS9hxi1_bppLTYy0g.TWOqrhO4C5eYh6dtY-07-ISExUnXUp0bfk2HBcjhdjAg.JPEG.yna9387/4.jpg#4032x3024,https://map.naver.com/p/entry/place/20054580
고흥 남열해돋이펜트하우스,반려동물업,반려동반여행,펜션,전라남도,고흥군,영남면,남열리,796 번지,남열본동2길,48-58 번,34.58669568,127.479934,59521,전라남도 고흥군 영남면 남열본동2길 48-58,전라남도 고흥군 영남면 남열리 796,,http://nypenthouse.co.kr/,연중무휴,매일 15:00~11:00,Y,변동,Y,해당없음,5kg 미만,객실당 최대 2마리,Y,Y,애견 동반 펜션,"10,000원",2022.11.30,https://ldb-phinf.pstatic.net/20231018_36/16976052780804o8DP_JPEG/000.jpg,https://map.naver.com/p/entry/place/1721498070
고흥 누림펜션,반려동물업,반려동반여행,펜션,전라남도,고흥군,동일면,봉영리,1194-1 번지,봉영로,542-6 번,34.49090796,127.475862,59567,전라남도 고흥군 동일면 봉영로 542-6,전라남도 고흥군 동일면 봉영리 1194-1,0507-1376-0726,https://nurimps.modoo.at/,연중무휴,매일 15:00~11:00,Y,변동,Y,반려동물 전용,5kg 미만,제한사항 없음,Y,Y,애견 동반 펜션,"10,000원",2022.11.30,https://ldb-phinf.pstatic.net/20210705_214/1625474507541ONrgF_JPEG/mFeEwOfYk7jKa8sshckpJGu2.jpg,https://map.naver.com/p/entry/place/1902451643
고흥 힐링 펜션,반려동물업,반려동반여행,펜션,전라남도,고흥군,금산면,오천리,623-30 번지,거금일주로,1467 번,34.43239437,127.196936,59566,전라남도 고흥군 금산면 거금일주로 1467,전라남도 고흥군 금산면 오천리 623-30,061-844-7700,정보없음,연중무휴,매일 15:00~11:00,Y,변동,Y,해당없음,7kg 미만,객실당 최대 1마리,Y,Y,애견 동반 펜션,"15,000원",2022.11.30,https://ldb-phinf.pstatic.net/20231003_185/1696287292180X31FG_JPEG/20230923_152124.jpg,https://map.naver.com/p/entry/place/33176386
고흥갑재민속전시관,반려동물업,반려동반여행,박물관,전라남도,고흥군,두원면,운대리,458-3 번지,두원운석길,9 번,34.65203482,127.312557,59515,전라남도 고흥군 두원면 두원운석길 9,전라남도 고흥군 두원면 운대리 458-3,061-833-0815,정보없음,"1월1일, 설, 추석 당일, 매주 월요일",화~일 09:00~18:00,Y,2000원,N,해당없음,해당없음,해당없음,Y,Y,박물관,없음,2022.11.30,,https://map.naver.com/p/entry/place/1619316230
고흥분청문화박물관,반려동물업,반려동반여행,박물관,전라남도,고흥군,두원면,운대리,141-1 번지,분청문화박물관길,99 번,34.62782423,127.324471,59515,전라남도 고흥군 두원면 분청문화박물관길 99,전라남도 고흥군 두원면 운대리 141-1,061-830-5990,buncheong.goheung.go.kr,"1월1일, 설, 추석 당일, 매주 월요일",화~일 09:00~18:00,Y,2000원,N,해당없음,해당없음,해당없음,Y,Y,박물관,없음,2022.11.30,http://blogfiles.naver.net/MjAxOTEwMDJfMTQ1/MDAxNTY5OTY3MDM2OTA1.mVn1TZjboxHUqC6MiwcomCvLQ9VV5YctPo2RjeUvk40g.MojQqzVeCx_Ln5obYWCac9me7GZSgAeUhGaCII2Fle4g.JPEG.zeropop0/KakaoTalk_20191001_194015458.jpg#4032x2268,https://map.naver.com/p/entry/place/1704322708
고흥종합문화회관,반려동물업,반려동반여행,문예회관,전라남도,고흥군,고흥읍,호형리,18 번지,고흥로,1892-67 번,34.61552273,127.300319,59536,전라남도 고흥군 고흥읍 고흥로 1892-67,전라남도 고흥군 고흥읍 호형리 산 18,061-830-6721,https://www.goheung.go.kr/culture/,연중무휴,매일 06:00~22:00,Y,변동,N,해당없음,해당없음,해당없음,Y,N,문예회관,없음,2022.11.30,http://blogfiles.naver.net/MjAxNzA5MTJfNDAg/MDAxNTA1MTgyMTQ1NTUw.yJR53v7rqF1hDsNcDI0luzr4sE_q66a7aVLI6vVEeu0g.4RTUlo5VbUbt_mG1KdKV5iysp3-fu3Xpy0QW8ipFIqUg.JPEG.lyj177/%C0%CC%BE%D6%C0%DA%B0%AD%BB%E7_%B0%ED%C8%EF%BF%A1%BC%AD.jpg#1035x661,https://map.naver.com/p/entry/place/11622968
곡성레저문화센터,반려동물업,반려동반여행,문예회관,전라남도,곡성군,곡성읍,읍내리,254 번지,곡성로,855 번,35.28142166,127.298178,57535,전라남도 곡성군 곡성읍 곡성로 855,전라남도 곡성군 곡성읍 읍내리 254,061-360-8468,http://wwwgokseong.go.kr/leisure/,연중무휴,매일 09:00~18:00,Y,변동,N,해당없음,해당없음,해당없음,Y,N,문예회관,없음,2022.11.30,https://ldb-phinf.pstatic.net/20190124_74/1548330611368BTdwM_JPEG/fgr-FY-U26UCrFq7lTOXp3zi.jpeg.jpg,https://map.naver.com/p/entry/place/35074760
골드독펜션,반려동물업,반려동반여행,펜션,충청남도,태안군,안면읍,정당리,1109-87 번지,붓드기길,4 번,36.55768917,126.346019,32163,충청남도 태안군 안면읍 붓드기길 4,충청남도 태안군 안면읍 정당리 1109-87,,http://golddogps.com,연중무휴,매일 15:00~11:00,Y,변동,Y,반려동물 전용,10kg 이하,맹견류 입장 불가,Y,Y,애견 동반 펜션,"10,000원",2022.11.30,https://ldb-phinf.pstatic.net/20240123_187/1705968987584oB1ax_JPEG/10.jpg,https://map.naver.com/p/entry/place/1200359851
곰나루국민관광단지,반려동물업,반려동반여행,여행지,충청남도,공주시,웅진동,,431 번지,백제큰길,2110-16 번,36.47022166,127.111701,32535,충청남도 공주시 백제큰길 2110-16,충청남도 공주시 웅진동 431,041-856-7700,정보없음,연중무휴,매일 00:00~24:00,Y,없음,Y,해당없음,모두 가능,목줄,N,Y,관광지,없음,2022.11.30,https://ldb-phinf.pstatic.net/20150831_235/1441013235888sTL76_JPEG/126258567559250_0.jpg,https://map.naver.com/p/entry/place/19748159
곰이네애견카페,반려동물업,반려동물식당카페,카페,부산광역시,부산진구,부전동,,233-6 번지,서면로,26 번,35.1531228,129.058124,47289,부산광역시 부산진구 서면로 26,부산광역시 부산진구 부전동 233-6,051-816-0367,정보없음,정보없음,정보없음,N,변동,Y,해당없음,모두 가능,제한사항 없음,Y,N,"애견카페, 유치원, 호텔, 7세 이상 입장 가능",없음,2022.11.30,,https://map.naver.com/p/entry/place/1292384048
공기마을 편백나무숲,반려동물업,반려동반여행,여행지,전라북도,완주군,상관면,죽림리,204-1 번지,죽림편백길,72-13 번,35.74599177,127.212489,55360,전라북도 완주군 상관면 죽림편백길 72-13,전라북도 완주군 상관면 죽림리 산 204-1,063-290-2114,정보없음,연중무휴,매일 00:00~24:00,Y,없음,Y,해당없음,모두 가능,"목줄, 배변봉투",N,Y,관광지,없음,2022.11.30,http://blogfiles.naver.net/20160831_189/jineunjoo502_1472626610059gq3xr_JPEG/a_639.jpg#900x602,https://map.naver.com/p/entry/place/38277392
공룡알화석산지,반려동물업,반려동반여행,여행지,경기도,화성시,송산면,고정리,6 번지,공룡로,659 번,37.26222503,126.747071,18235,경기도 화성시 송산면 공룡로 659,경기도 화성시 송산면 고정리 산 6,031-357-3951,http://dinopia.hscity.go.kr/user/index.jsp,매주 월요일,화~일 09:00~17:00,Y,없음,Y,해당없음,모두 가능,"목줄, 배변봉투",N,Y,관광지,없음,2022.11.30,http://blogfiles.naver.net/MjAxODAxMDVfMTg0/MDAxNTE1MDgxNDEyNDQ1.jj1-qjwSPR4RVb74uCTVEqcDJ8QLXFmJpxEyLV47TAkg.0GNm7uSDm0B0bIuyCJ3LC62CVJre-0ChvhiHtY9f3Nog.JPEG.thduddl9632/IMG_1475.jpg#3024x3024,https://map.naver.com/p/entry/place/20027743
공리저수지,반려동물업,반려동반여행,여행지,충청남도,홍성군,구항면,공리,89-2 번지,내포로686번길,72 번,36.59239649,126.594495,32213,충청남도 홍성군 구항면 내포로686번길 72,충청남도 홍성군 구항면 공리 89-2,,정보없음,연중무휴,매일 00:00~24:00,Y,없음,Y,해당없음,모두 가능,목줄,N,Y,관광지,없음,2022.11.30,https://ldb-phinf.pstatic.net/20190902_250/1567434645384CTgyG_JPEG/Dmue5FQV5geL2lsVZHZ-nlyp.jpg,https://map.naver.com/p/entry/place/37779839
공립인제내설악미술관,반려동물업,반려동반여행,미술관,강원도,인제군,북면,한계리,1186-3 번지,예술인촌길,66-27 번,38.14667693,128.25236,24607,강원도 인제군 북면 예술인촌길 66-27,강원도 인제군 북면 한계리 1186-3,033-463-4081,http://www.inama.co.kr/,"매주 월요일, 법정공휴일 다음날",화~일 9:30~18:00,Y,없음,N,해당없음,해당없음,해당없음,Y,N,미술관,없음,2022.11.30,,https://map.naver.com/p/entry/place/1246419845
공세리성지성당박물관,반려동물업,반려동반여행,박물관,충청남도,아산시,인주면,공세리,194-1 번지,공세리성당길,10 번,36.88194612,126.913978,31427,충청남도 아산시 인주면 공세리성당길 10,충청남도 아산시 인주면 공세리 194-1,041-533-8181,gongseri.or.kr,매주 월요일,화~일 10:00~16:00,Y,없음,N,해당없음,해당없음,해당없음,Y,Y,박물관,없음,2022.11.30,http://blogfiles.naver.net/MjAxNzEyMDFfMTk0/MDAxNTEyMDk0MTYxODY5.cNhj9kpDjO6qiKDsRPQCVWIqMvFL1qvmIk5YTtcGgEgg.XIUSSUtl7GNR8lSz-CSEIpISoT9hp6cj98ZQBtpAbnkg.JPEG.yhk424/_MG_1912.jpg#936x624,https://map.naver.com/p/entry/place/31995070
공예미술관 보임쉔,반려동물업,반려동반여행,미술관,전라남도,담양군,대전면,응용리,591 번지,신룡길,79-3 번,35.24869707,126.879598,57330,전라남도 담양군 대전면 신룡길 79-3,전라남도 담양군 대전면 응용리 591,061-383-6473,"www.artbaum.co,kr",매주 월요일,화~일 10:00~18:00,Y,없음,N,해당없음,해당없음,해당없음,Y,Y,미술관,없음,2022.11.30,,https://map.naver.com/p/entry/place/36606160
공주교육대학교박물관,반려동물업,반려동반여행,박물관,충청남도,공주시,봉황동,,376-1 번지,웅진로,27 번,36.44520385,127.119655,32553,충청남도 공주시 웅진로 27,충청남도 공주시 봉황동 376-1,041-850-1351,https://webserver.gjue.ac.kr/museum/,법정공휴일,매일 10:00~17:00,Y,없음,N,해당없음,해당없음,해당없음,Y,N,박물관,없음,2022.11.30,,https://map.naver.com/p/entry/place/37604357
공주기독교박물관,반려동물업,반려동반여행,박물관,충청남도,공주시,봉황동,,10 번지,제민1길,18 번,36.4509695,127.122501,32549,충청남도 공주시 제민1길 18,충청남도 공주시 봉황동 10,041-853-7007,정보없음,"매주 일, 월","화~금 10:30~16:00, 토 10:30~13:00",Y,1500원,N,해당없음,해당없음,해당없음,Y,Y,박물관,없음,2022.11.30,https://ldb-phinf.pstatic.net/20200114_257/15789695232280MATi_JPEG/lvl7c-xJxApEvHio_kcrRTt_.jpeg.jpg,https://map.naver.com/p/entry/place/1198260857
공주대학교박물관,반려동물업,반려동반여행,박물관,충청남도,공주시,신관동,,182 번지,공주대학로,56 번,36.46684834,127.138669,32588,충청남도 공주시 공주대학로 56,충청남도 공주시 신관동 182,041-850-8733,https://blog.naver.com/kongjucastle,"매주 토, 일",월~금 10:00~16:00,Y,없음,N,해당없음,해당없음,해당없음,Y,N,박물관,없음,2022.11.30,,https://map.naver.com/p/entry/place/17444636
공주문예회관,반려동물업,반려동반여행,문예회관,충청남도,공주시,웅진동,,283 번지,고마나루길,5 번,36.46017763,127.111724,32535,충청남도 공주시 고마나루길 5,충청남도 공주시 웅진동 283,041-840-2203,http://acc.gongju.go.kr,매주 월요일,화~일 09:00~22:00,Y,변동,N,해당없음,해당없음,해당없음,Y,N,문예회관,없음,2022.11.30,https://ldb-phinf.pstatic.net/20150901_28/1441045074258IuFEx_JPEG/116662616652534_0.jpg,https://map.naver.com/p/entry/place/12974597
공천포구,반려동물업,반려동반여행,여행지,제주특별자치도,서귀포시,남원읍,신례리,72-18 번지,,,33.26316429,126.641664,63612,,제주특별자치도 서귀포시 남원읍 신례리 72-18,064-740-6000,https://www.visitjeju.net/u/9iE,연중무휴,매일 00:00~24:00,N,없음,Y,해당없음,모두 가능,제한사항 없음,N,Y,관광지,없음,2022.11.30,,https://map.naver.com/p/entry/place/17075259
과천시 추사박물관,반려동물업,반려동반여행,박물관,경기도,과천시,주암동,,184-2 번지,추사로,78 번,37.45300477,127.028725,13820,경기도 과천시 추사로 78,경기도 과천시 주암동 184-2,02-2150-3650,https://www.gccity.go.kr/chusamuseum,"1월1일, 설, 추석 연휴, 매주 월요일",화~일 09:30~18:00,Y,2000원,Y,해당없음,모두 가능,야외만 반려동물 동반 가능,Y,Y,박물관,없음,2022.11.30,https://ldb-phinf.pstatic.net/20150901_67/1441078192044zyzx2_JPEG/146470627625166_0.jpeg,https://map.naver.com/p/entry/place/21135846
과천시민회관,반려동물업,반려동반여행,문예회관,경기도,과천시,중앙동,,6-2 번지,통영로,5 번,37.42819272,126.989152,13807,경기도 과천시 통영로 5,경기도 과천시 중앙동 6-2,02-2009-9700,www.gcart.or.kr,법정공휴일,매일 06:00~23:00,Y,변동,N,해당없음,해당없음,해당없음,Y,N,문예회관,없음,2022.11.30,https://ldb-phinf.pstatic.net/20150901_181/1441037749856c2Tvk_JPEG/116662616764087_0.jpg,https://map.naver.com/p/entry/place/13445005
곽지해수욕장,반려동물업,반려동반여행,여행지,제주특별자치도,제주시,애월읍,곽지리,1565-6 번지,곽지11길,15-6 번,33.45308487,126.30669,63034,제주특별자치도 제주시 애월읍 곽지11길 15-6,제주특별자치도 제주시 애월읍 곽지리 1565-6,064-728-3985,https://www.visitjeju.net/kr/detail/view?contentsid=CONT_000000000500056#tdetailInfo,연중무휴,매일 00:00~24:00,Y,없음,Y,해당없음,모두 가능,목줄,N,Y,관광지,없음,2022.11.30,http://blogfiles.naver.net/MjAxNzEyMjdfNjUg/MDAxNTE0MzAzMzYwNDcz.Z_BrwPWkBFWcaSB4uXLytQSfytmBcIsspisdvGHlBGog.6MccOXebxvYHBz1lbU003QBF0D476ENiB-OjGoFBbgkg.JPEG.marbin/10210013.JPG#900x506,https://map.naver.com/p/entry/place/13491575
관문사성보박물관,반려동물업,반려동반여행,박물관,서울특별시,서초구,우면동,,56 번지,바우뫼로7길,111 번,37.47375033,127.022282,6762,서울특별시 서초구 바우뫼로7길 111,서울특별시 서초구 우면동 56,02-3460-5300,www.gwanmunsa.org,매주 월요일,화~일 10:00~18:00,Y,변동,N,해당없음,해당없음,해당없음,Y,N,박물관,없음,2022.11.30,https://ldb-phinf.pstatic.net/20150831_88/1441002517368bdAEM_JPEG/106777536267520_0.jpg,https://map.naver.com/p/entry/place/13175231
관문체육공원,반려동물업,반려동반여행,여행지,경기도,과천시,관문동,,3 번지,중앙로,294 번,37.44136421,126.996346,13830,경기도 과천시 중앙로 294,경기도 과천시 관문동 3,02-504-7300,정보없음,연중무휴,매일 00:00~24:00,Y,없음,Y,해당없음,소형/중형,"목줄, 배변봉투",N,Y,공원,없음,2022.11.30,https://ldb-phinf.pstatic.net/20150831_267/1441011085195EMcMp_JPEG/116360433650868_0.jpg,https://map.naver.com/p/entry/place/11641174
관아골갤러리,반려동물업,반려동반여행,미술관,충청북도,충주시,성내동,,452 번지,관아5길,10 번,36.97007574,127.936086,27388,충청북도 충주시 관아5길 10,충청북도 충주시 성내동 452,043-850-3913,www.chungju.go.kr/culture/,매주 월요일,화~일 09:00~18:00,Y,없음,N,해당없음,해당없음,해당없음,Y,Y,미술관,없음,2022.11.30,,https://map.naver.com/p/entry/place/306104537
관악아트홀,반려동물업,반려동반여행,문예회관,서울특별시,관악구,신림동,,209-1 번지,신림로3길,35 번,37.46759765,126.944871,8825,서울특별시 관악구 신림로3길 35,서울특별시 관악구 신림동 209-1,02-828-5700,www.gfac.or.kr,"매주 월요일, 법정공휴일",전시공연에 따라 변동,Y,변동,N,해당없음,해당없음,해당없음,Y,N,문예회관,없음,2022.11.30,https://ldb-phinf.pstatic.net/20200527_251/1590564234620ge6XO_JPEG/2PsnQFJgCp6Pmo2e1lQJA1AS.jpg,https://map.naver.com/p/entry/place/1729178960
관저문예회관,반려동물업,반려동반여행,문예회관,대전광역시,서구,관저동,,1199 번지,관저동로105번길,20 번,36.30167117,127.33955,35378,대전광역시 서구 관저동로105번길 20,대전광역시 서구 관저동 1199,042-288-2790,www.seogu.go.kr/art,매주 월요일,화~일 09:00~18:00,Y,없음,N,해당없음,해당없음,해당없음,Y,N,문예회관,없음,2022.11.30,,https://map.naver.com/p/entry/place/30955030
관저체육공원,반려동물업,반려동반여행,여행지,대전광역시,서구,관저동,,1580 번지,구봉산북로,121 번,36.29278461,127.333588,35376,대전광역시 서구 구봉산북로 121,대전광역시 서구 관저동 1580,,정보없음,연중무휴,매일 00:00~24:00,Y,없음,Y,해당없음,모두 가능,목줄,N,Y,공원,없음,2022.11.30,https://ldb-phinf.pstatic.net/20191126_114/1574732884313sX7SY_JPEG/4mkuPUpt5IBZC7EqOPcdooEo.jpg,https://map.naver.com/p/entry/place/13476488
광교호수공원,반려동물업,반려동반여행,여행지,경기도,수원시 영통구,하동,,1026-1 번지,광교호수로,165 번,37.28326769,127.070057,16514,경기도 수원시 영통구 광교호수로 165,경기도 수원시 영통구 하동 1026-1,070-8800-2460,http://www.gglakepark.or.kr/,연중무휴,매일 00:00~24:00,Y,없음,Y,해당없음,모두 가능,"목줄, 배변봉투",N,Y,공원,없음,2022.11.30,http://blogfiles.naver.net/MjAxODAxMDhfMjYx/MDAxNTE1NDA4MTM3NDQ5.TzyN8qk_jzBBd7la2SNbD1A7lgAtHAAB2blOcEw07Iog._rFW0AMwQIbZuersV31QebjzyPlMU7-TcK-Us9sDgy0g.JPEG.ehdsuz7511/20170801_140814.jpg#4128x2322,https://map.naver.com/p/entry/place/20815787
광명시민회관,반려동물업,반려동반여행,문예회관,경기도,광명시,철산동,,222-1 번지,시청로,20 번,37.47909912,126.864848,14234,경기도 광명시 시청로 20,경기도 광명시 철산동 222-1,02-2621-8800,www.gmcf.or.kr,매주 월요일,"화~토 09:00~21:00, 일 09:00~19:00",Y,변동,N,해당없음,해당없음,해당없음,Y,N,문예회관,없음,2022.11.30,https://ldb-phinf.pstatic.net/20191210_219/1575944786656P6o8r_JPEG/jMpaMwsM3f3YqmgVP5e6_Vke.jpg,https://map.naver.com/p/entry/place/1611583293
광명시반려견놀이터,반려동물업,반려동반여행,여행지,경기도,광명시,소하동,,1345 번지,하안로,60 번,37.44474476,126.894026,14322,경기도 광명시 하안로 60,경기도 광명시 소하동 1345,031-335-6050,정보없음,법정공휴일,매일 09:00~18:00,N,없음,Y,해당없음,모두 가능,"목줄, 배변봉투, 질병이나 공격성 있는 경우 입장 불가",N,Y,"관광지, 강아지놀이터, 13세 미만 보호자 동반 필수",없음,2022.11.30,,https://map.naver.com/p/entry/place/1268370383
광산문화예술회관,반려동물업,반려동반여행,문예회관,광주광역시,광산구,송정동,,582-1 번지,광산로68번길,13 번,35.14050104,126.799232,62427,광주광역시 광산구 광산로68번길 13,광주광역시 광산구 송정동 582-1,062-960-8864,http://art.gwangsan.go.kr,전시공연에 따라 변동,전시공연에 따라 변동,Y,변동,N,해당없음,해당없음,해당없음,Y,N,문예회관,없음,2022.11.30,https://ldb-phinf.pstatic.net/20150831_70/1440994169852erH5O_JPEG/116662617168123_0.jpg,https://map.naver.com/p/entry/place/11538165
광양문화예술회관,반려동물업,반려동반여행,문예회관,전라남도,광양시,광양읍,우산리,536 번지,향교길,9-30 번,34.97994433,127.587507,57734,전라남도 광양시 광양읍 향교길 9-30,전라남도 광양시 광양읍 우산리 536,061-797-3838,https://www.gwangyang.go.kr/art/,연중무휴,매일 09:00~22:00,Y,변동,N,해당없음,해당없음,해당없음,Y,N,문예회관,없음,2022.11.30,http://blogfiles.naver.net/20150109_175/suro71_14207905207935p8oA_JPEG/%BB%E7%C1%F82.JPG#740x415,https://map.naver.com/p/entry/place/13281344
광양역사문화관,반려동물업,반려동반여행,박물관,전라남도,광양시,광양읍,읍내리,272-1 번지,매천로,829 번,34.9757671,127.58598,57743,전라남도 광양시 광양읍 매천로 829,전라남도 광양시 광양읍 읍내리 272-1,061-797-2305,정보없음,매주 월요일,화~일 10:00~18:00,Y,없음,N,해당없음,해당없음,해당없음,Y,Y,박물관,없음,2022.11.30,http://blogfiles.naver.net/20160407_148/bbalgan00_1459991858399JDg9y_JPEG/IMG_7659.JPG#740x493,https://map.naver.com/p/entry/place/17017656
광주교육대학교 교육박물관,반려동물업,반려동반여행,박물관,광주광역시,북구,풍향동,,1-1 번지,필문대로,55 번,35.16471468,126.925697,61204,광주광역시 북구 필문대로 55,광주광역시 북구 풍향동 1-1,062-520-4283,museum.gnue.ac.kr,"매주 일요일, 법정공휴일, 개교기념일",월~토 10:00~17:00,Y,없음,Y,해당없음,모두 가능,야외만 반려동물 동반 가능,Y,Y,박물관,없음,2022.11.30,,https://map.naver.com/p/entry/place/21824448
광주김치박물관,반려동물업,반려동반여행,박물관,광주광역시,남구,임암동,,674 번지,김치로,60 번,35.10966818,126.866653,61755,광주광역시 남구 김치로 60,광주광역시 남구 임암동 674,062-613-8223,https://www.gwangju.go.kr/kimchitown/,"1월1일, 설, 추석 당일, 매주 월요일",화~일 09:00~18:00,Y,없음,Y,해당없음,모두 가능,야외만 반려동물 동반 가능,Y,Y,박물관,없음,2022.11.30,,https://map.naver.com/p/entry/place/16293955
광주남구문화예술회관,반려동물업,반려동반여행,문예회관,광주광역시,남구,봉선동,,1068 번지,봉선로,208 번,35.12206372,126.917405,61705,광주광역시 남구 봉선로 208,광주광역시 남구 봉선동 1068,062-670-5061,http://www.nglcc.kr,"법정공휴일, 2,4째주 월요일",전시공연에 따라 변동,Y,변동,N,해당없음,해당없음,해당없음,Y,N,문예회관,없음,2022.11.30,http://blogfiles.naver.net/20150720_33/gwangju_city_14373504905172c1WP_JPEG/03.JPG#550x733,https://map.naver.com/p/entry/place/13281355
